     3.03           OBSERVATION DATA    M: Mixed            RINEX VERSION / TYPE
Geo++ RINEX Logger  Geo++               20210416 125942 UTC PGM / RUN BY / DATE
************************************************************COMMENT
This file was generated by the Geo++ RINEX Logger App       COMMENT
for Android devices (Version 2.1.6). If you encounter       COMMENT
any issues, please send an email to android@geopp.de        COMMENT
Filtering Mode: BEST                                        COMMENT
************************************************************COMMENT
Geo++                                                       MARKER NAME
GEODETIC                                                    MARKER TYPE
Geo++               Geo++                                   OBSERVER / AGENCY
unknown             HUAWEI              LIO-L29             REC # / TYPE / VERS
unknown             LIO-L29                                 ANT # / TYPE
  3657431.6088  1409705.9657  5014836.2719                  APPROX POSITION XYZ
        0.0000        0.0000        0.0000                  ANTENNA: DELTA H/E/N
G    8 C1C L1C D1C S1C C5Q L5Q D5Q S5Q                      SYS / # / OBS TYPES
R    4 C1C L1C D1C S1C                                      SYS / # / OBS TYPES
E   12 C1B L1B D1B S1B C1C L1C D1C S1C C5Q L5Q D5Q S5Q      SYS / # / OBS TYPES
C    4 C2I L2I D2I S2I                                      SYS / # / OBS TYPES
J    8 C1C L1C D1C S1C C5Q L5Q D5Q S5Q                      SYS / # / OBS TYPES
  2021     4    16    13     0    0.9987855     GPS         TIME OF FIRST OBS
 24 R01  1 R02 -4 R03  5 R04  6 R05  1 R06 -4 R07  5 R08  6 GLONASS SLOT / FRQ #
    R09 -2 R10 -5 R11  0 R12 -1 R13 -2 R14 -7 R15  0 R16 -1 GLONASS SLOT / FRQ #
    R17  4 R18 -3 R19  3 R20  2 R21  4 R22 -3 R23  3 R24  2 GLONASS SLOT / FRQ #
G L1C                                                       SYS / PHASE SHIFT
G L5Q -0.25000                                              SYS / PHASE SHIFT
R L1C                                                       SYS / PHASE SHIFT
E L1B                                                       SYS / PHASE SHIFT
E L1C +0.50000                                              SYS / PHASE SHIFT
E L5Q -0.25000                                              SYS / PHASE SHIFT
C L2I                                                       SYS / PHASE SHIFT
J L1C                                                       SYS / PHASE SHIFT
J L5Q -0.25000                                              SYS / PHASE SHIFT
 C1C    0.000 C1P    0.000 C2C    0.000 C2P    0.000        GLONASS COD/PHS/BIS
                                                            END OF HEADER
> 2021  4 16 13  0  0.9987855  0 36
C05  39354127.405   204927268.3791       -249.476          35.000  
C08  39212966.228   204192204.7731      -1214.544          29.000  
C13  37380265.081   194648849.0041       -586.142          26.000  
C14  25868538.683   134704258.8901        185.633          25.000  
C27  21390749.492   111387245.4431       -453.270          42.000  
C28  24225655.628   126149345.4971      -2965.272          30.000  
C30  23344948.129   121563144.2121       2285.707          42.000  
C36  23359739.289   121640094.4411       1231.940          43.000  
C37  26108339.673   135952975.5951      -3797.169          33.000  
C38  38507619.330   200519278.6821      -1025.763          29.000  
C42  26771785.778   139407712.9911       -929.942          32.000  
C46  22422410.588   116759375.4671      -2012.721          50.000  
E01                                                                                                                                  28651462.605   112434483.8051       2094.301          31.000  
E13                                                                                                                                  24716444.362    96992561.3931       1582.700          32.000  
E15                                                                                                                                  23233153.123    91171883.0121       -442.213          31.000  
E21                                                                                                                                  24503604.907    96157320.6811       1050.296          40.000  
E27                                                                                                                                  23682108.517    92933679.9131      -1148.487          39.000  
E30                                                                                                                                  26526877.525   104097164.8791      -2452.237          26.000  
G02  24848637.246   130580469.9151      -3323.541          29.000  
G04  25128125.960   132049192.6591       -705.744          38.000    25128135.254    98608199.4181       -526.930          40.000  
G12  24714191.122   129873950.7161      -3984.181          34.000  
G18  22486025.049   118164634.3211       3112.298          42.000  
G20  24808384.113   130368981.2701       3164.692          34.000  
G25  21454797.453   112745721.5101      -2954.277          40.000    21454805.847    84193266.0901      -2206.110          36.000  
G26  22626791.098   118904534.5521       2785.010          34.000    22626797.394    88792359.4221       2078.250          37.000  
G29  20284247.008   106594437.3101       -486.848          44.000  
G31  21870686.339   114931231.8061      -1410.755          44.000  
R01  23379241.988                        2076.227          24.000  
R08  23308774.871                        -493.404          36.000  
R09  24479451.528                        4202.538          27.000  
R14  23288693.273                       -4729.539          30.000  
R15  19671974.575                       -2337.281          41.000  
R16  20367729.914                        2234.116          29.000  
R17  19124469.006                       -1028.985          43.000  
R18  20561431.217                        2591.135          43.000  
R24  22203035.358                       -3983.377          28.000  
> 2021  4 16 13  0  1.9987853  0 37
C05  39354115.113   204927204.6541       -249.423          34.000  
C08  39213138.009   204193099.2801      -1214.303          30.000  
C13  37380317.245   194649120.9591       -585.967          26.000  
C14  25868446.947   134703759.4581        187.979          29.000  
C27  21390777.073   111387389.4771       -453.069          41.000  
C28  24226164.375   126151994.3761      -2965.143          36.000  
C30  23344448.674   121560546.6891       2285.329          42.000  
C36  23359441.595   121638550.8171       1230.415          42.000  
C37  26109008.210   135956456.7231      -3797.393          31.000  
C38  38507757.834   200519999.6851      -1026.917          32.000  
C42  26771908.393   139408351.9331       -930.700          32.000  
C46  22422737.062   116761075.2091      -2013.189          49.000  
E01                                                                                                                                  28650870.515   112432154.3951       2093.862          30.000  
E13                                                                                                                                  24715981.782    96990742.9731       1583.226          32.000  
E15                                                                                                                                  23233206.486    91172092.1411       -440.706          28.000  
E21                                                                                                                                  24503278.134    96156035.3571       1049.721          39.000  
E27                                                                                                                                  23682341.156    92934592.4271      -1148.483          39.000  
E30                                                                                                                                  26527443.533   104099385.6201      -2459.023          24.000  
G04  25128199.410   132049578.2741       -707.102          39.000    25128210.202    98608493.7051       -528.407          38.000  
G05  23104827.261   121416572.4791       1549.273          29.000  
G12  24714891.137   129877629.3861      -3983.732          27.000  
G18  22485372.401   118161206.4081       3113.105          42.000  
G20  24807721.272   130365501.3601       3164.971          35.000  
G25  21455298.106   112748352.0171      -2953.613          40.000    21455308.299    84195237.9501      -2204.818          33.000  
G26  22626202.006   118901434.3951       2784.406          36.000    22626208.302    88790046.3161       2077.919          36.000  
G29  20284280.285   106594611.9921       -486.389          44.000  
G31  21870894.395   114932325.5581      -1411.178          44.000  
R01  23378797.395                        2078.443          28.000  
R07  24590133.405                       -3088.004          17.000  
R08  23308809.947                        -497.972          30.000  
R09  24478604.315                        4202.615          28.000  
R14  23289519.201                       -4729.034          32.000  
R15  19672353.813                       -2337.893          40.000  
R16  20367252.644                        2229.734          28.000  
R17  19124601.814                       -1029.018          44.000  
R18  20560861.612                        2592.563          44.000  
R24  22203719.485                       -3985.309          35.000  
> 2021  4 16 13  0  2.9987850  0 38
C05  39354072.542   204926982.2801       -245.702          35.000  
C08  39213281.310   204193845.9581      -1213.440          29.000  
C13  37380339.729   194649237.5761       -586.375          28.000  
C14  25868323.133   134703104.6601        182.032          29.000  
C27  21390774.375   111387375.1401       -452.791          42.000  
C28  24226642.544   126154484.9631      -2964.708          36.000  
C30  23343919.541   121557793.5501       2284.916          43.000  
C36  23359114.222   121636852.8921       1228.576          41.000  
C37  26109647.667   135959786.3661      -3796.191          34.000  
C38  38507864.860   200520557.0661      -1025.798          32.000  
C42  26772001.329   139408835.9941       -934.374          32.000  
C46  22423034.156   116762622.6971      -2012.753          49.000  
E01                                                                                                                                  28650248.146   112429708.7651       2092.113          30.000  
E13                                                                                                                                  24715489.523    96988806.9091       1582.413          32.000  
E15                                                                                                                                  23233228.670    91172178.6561       -441.372          28.000  
E21                                                                                                                                  24502921.081    96154633.1641       1048.751          38.000  
E27                                                                                                                                  23682543.816    92935387.8121      -1148.983          37.000  
E30                                                                                                                                  26527982.260   104101499.8791      -2459.116          25.000  
G02  24849754.273   130586339.1581      -3325.184          26.000  
G04  25128243.779   132049811.6091       -710.202          37.000    25128255.471    98608670.8911       -530.383          38.000  
G05  23104444.126   121414550.2991       1549.898          34.000  
G12  24715558.175   129881134.7671      -3982.388          28.000  
G16  24973171.033   131234812.8611       3519.150          29.000  
G18  22484689.174   118157620.1501       3113.725          42.000  
G20  24807028.152   130361862.6801       3166.765          34.000  
G25  21455769.380   112750828.9901      -2951.881          39.000    21455780.172    84197089.7111      -2205.559          32.000  
G26  22625582.935   118898178.1321       2782.628          36.000    22625588.331    88787614.9811       2077.792          34.000  
G29  20284283.583   106594628.7361       -488.124          44.000  
G31  21871073.071   114933263.8721      -1412.285          44.000  
R01  23378321.025                        2075.786          28.000  
R08  23308816.542                        -499.590          29.000  
R09  24477727.122                        4199.115          27.000  
R14  23290315.150                       -4727.704          32.000  
R15  19672698.874                       -2337.651          42.000  
R16  20366746.895                        2226.992          28.000  
R17  19124699.246                       -1030.503          45.000  
R18  20560282.413                        2588.812          41.000  
R24  22204374.831                       -3985.765          36.000  
> 2021  4 16 13  0  3.9987850  0 35
C05  39354122.008   204927240.3121       -241.335          35.000  
C08  39213516.647   204195070.7281      -1213.855          27.000  
C13  37380455.149   194649838.3471       -587.030          29.000  
C14  25868292.254   134702923.7251        178.552          24.000  
C27  21390862.214   111387832.8291       -454.077          42.000  
C28  24227211.251   126157446.0961      -2963.985          38.000  
C30  23343481.244   121555508.4481       2285.049          42.000  
C36  23358877.386   121635624.4691       1228.338          40.000  
C37  26110377.062   135963584.6541      -3794.193          34.000  
C38  38508063.023   200521589.3631      -1025.052          33.000  
C42  26772182.704   139409780.4551       -934.943          25.000  
C46  22423420.589   116764634.6721      -2013.336          48.000  
E01                                                                                                                                  28649714.815   112427617.3391       2090.519          31.000  
E13                                                                                                                                  24715086.002    96987223.3281       1584.062          32.000  
E15                                                                                                                                  23233341.392    91172621.8261       -442.516          27.000  
E21                                                                                                                                  24502653.666    96153585.0071       1047.460          39.000  
E27                                                                                                                                  23682837.013    92936538.2511      -1149.025          37.000  
E30                                                                                                                                  26528609.726   104103962.2861      -2461.011          25.000  
G04  25128381.683   132050536.4601       -711.194          42.000    25128390.377    98609200.4881       -530.272          39.000  
G12  24716316.950   129885122.0571      -3979.969          35.000  
G16  24972502.196   131231296.2831       3514.944          26.000  
G18  22484097.383   118154505.9811       3113.536          42.000  
G20  24806424.969   130358694.5041       3168.916          33.000  
G25  21456331.791   112753783.8321      -2952.433          39.000    21456342.583    84199295.9901      -2205.348          31.000  
G26  22625053.202   118895396.5991       2780.816          38.000    22625058.598    88785537.5001       2076.821          35.000  
G29  20284375.919   106595114.0141       -488.036          45.000  
G31  21871342.285   114934678.5251      -1412.694          45.000  
R08  23308912.476                        -499.892          28.000  
R09  24476940.767                        4197.162          26.000  
R14  23291200.138                       -4726.425          30.000  
R15  19673136.271                       -2337.909          40.000  
R16  20366334.680                        2225.058          25.000  
R17  19124890.814                       -1030.930          44.000  
R18  20559794.650                        2582.944          44.000  
R24  22205123.413                       -3982.766          37.000  
> 2021  4 16 13  0  4.9987848  0 38
C05  39354110.017   204927177.6091       -243.896          37.000  
C08  39213690.827   204195977.9101      -1213.928          23.000  
C13  37380508.512   194650116.5331       -588.052          26.000  
C14  25868198.719   134702435.7401        172.712          24.000  
C27  21390889.495   111387974.5061       -454.192          42.000  
C30  23342983.589   121552911.4741       2284.633          42.000  
C36  23358580.891   121634083.0891       1228.746          40.000  
C37  26111046.199   135967069.0401      -3793.550          33.000  
C38  38508199.128   200522297.7511      -1025.820          25.000  
C42  26772304.719   139410415.9981       -936.116          26.000  
C46  22423747.363   116766336.9001      -2014.089          49.000  
E01                                                                                                                                  28649121.826   112425290.9051       2093.090          33.000  
E13                                                                                                                                  24714622.523    96985404.0911       1584.130          32.000  
E15                                                                                                                                  23233394.456    91172829.2581       -444.269          26.000  
E21                                                                                                                                  24502326.292    96152301.5121       1048.436          38.000  
E27                                                                                                                                  23683069.652    92937451.9931      -1148.240          38.000  
E30                                                                                                                                  26529176.933   104106188.1011      -2456.810          23.000  
G02  24850969.332   130592724.4961      -3328.034          25.000  
G04  25128456.931   132050931.9731       -710.122          41.000    25128465.625    98609495.4461       -529.936          39.000  
G05  23103796.275   121411134.5831       1549.095          38.000  
G12  24717013.967   129888784.5951      -3979.888          33.000  
G16  24971772.202   131227465.1071       3516.545          27.000  
G18  22483443.836   118151077.0681       3112.801          42.000  
G20  24805762.728   130355209.9761       3169.455          34.000  
G25  21456835.442   112756430.3791      -2953.179          40.000    21456844.735    84201267.0891      -2204.070          32.000  
G26  22624462.910   118892301.0011       2781.098          38.000    22624469.506    88783225.5061       2076.202          36.000  
G29  20284408.596   106595286.1131       -488.764          44.000  
G31  21871551.240   114935777.3561      -1413.732          44.000  
R01  23377483.405                        2062.708          26.000  
R07  24591733.697                       -3094.947          18.000  
R08  23308945.753                        -502.022          29.000  
R09  24476088.457                        4197.512          26.000  
R14  23292029.064                       -4726.340          31.000  
R15  19673515.209                       -2339.166          43.000  
R16  20365863.406                        2224.831          25.000  
R17  19125027.219                       -1031.817          44.000  
R18  20559263.118                        2592.053          43.000  
R24  22205811.137                       -3983.613          28.000  
> 2021  4 16 13  0  5.9987848  0 38
C05  39354157.384   204927423.8381       -247.032          37.000  
C08  39213923.166   204197188.2541      -1214.040          30.000  
C13  37380620.635   194650700.7231       -590.142          28.000  
C14  25868167.240   134702264.9781        171.442          20.000  
C27  21390976.135   111388425.1461       -454.761          42.000  
C28  24228291.703   126163072.3031      -2965.374          33.000  
C30  23342543.793   121550626.5561       2284.714          41.000  
C36  23358345.554   121632853.9041       1229.429          40.000  
C37  26111774.695   135970862.3521      -3793.479          34.000  
C38  38508396.392   200523325.0241      -1027.018          29.000  
C42  26772486.094   139411359.9181       -933.619          29.000  
C46  22424134.395   116768351.3541      -2014.936          49.000  
E01                                                                                                                                  28648586.996   112423197.3481       2094.342          29.000  
E13                                                                                                                                  24714218.702    96983820.2051       1583.930          32.000  
E15                                                                                                                                  23233506.578    91173269.9761       -442.880          27.000  
E21                                                                                                                                  24502058.578    96151252.4681       1049.479          39.000  
E27                                                                                                                                  23683362.549    92938600.7361      -1150.758          37.000  
E30                                                                                                                                  26529802.600   104108643.6331      -2455.427          22.000  
G02  24851604.892   130596064.7821      -3330.104          23.000  
G04  25128589.739   132051629.6771       -709.253          40.000    25128600.232    98610023.8051       -530.700          39.000  
G05  23103505.776   121409585.9441       1546.919          30.000  
G12  24717770.643   129892761.0181      -3981.190          39.000  
G16  24971101.866   131223948.1301       3518.727          27.000  
G18  22482851.746   118147964.4391       3111.842          42.000  
G20  24805159.545   130352041.1411       3167.807          35.000  
G25  21457397.853   112759386.7371      -2955.245          40.000    21457406.846    84203472.8731      -2205.704          32.000  
G26  22623932.877   118889518.5911       2782.543          36.000    22623940.672    88781149.5621       2076.264          34.000  
G29  20284501.532   106595774.0931       -489.463          44.000  
G31  21871819.854   114937188.8801      -1413.320          44.000  
R07  24592319.791                       -3095.966          18.000  
R08  23309038.688                        -501.230          31.000  
R09  24475299.403                        4196.134          22.000  
R14  23292914.951                       -4727.803          34.000  
R15  19673951.707                       -2340.941          42.000  
R16  20365447.294                        2225.068          25.000  
R17  19125221.485                       -1031.535          44.000  
R18  20558781.052                        2589.276          43.000  
R24  22206557.620                       -3986.780          29.000  
> 2021  4 16 13  0  6.9987845  0 38
C05  39354114.214   204927199.5641       -247.275          34.000  
C08  39214065.268   204197927.8031      -1213.227          29.000  
C13  37380644.019   194650821.8091       -591.251          29.000  
C14  25868045.825   134701623.0631        173.981          24.000  
C27  21390972.238   111388405.4451       -454.493          42.000  
C28  24228770.771   126165566.7631      -2966.367          36.000  
C30  23342015.259   121547873.9401       2283.340          41.000  
C36  23358019.679   121631156.1981       1229.180          40.000  
C37  26112414.152   135974192.5671      -3795.646          34.000  
C38  38508504.017   200523885.0101      -1027.212          30.000  
C42  26772577.230   139411834.4491       -933.892          32.000  
C46  22424431.489   116769899.1481      -2015.658          49.000  
E01                                                                                                                                  28647963.128   112420750.2271       2093.663          30.000  
E13                                                                                                                                  24713725.244    96981884.3781       1582.070          32.000  
E15                                                                                                                                  23233529.063    91173357.8291       -443.115          29.000  
E21                                                                                                                                  24501700.626    96149849.8361       1049.318          41.000  
E27                                                                                                                                  23683565.209    92939396.0711      -1150.452          38.000  
E30                                                                                                                                  26530341.027   104110756.5401      -2460.440          23.000  
G02  24852147.816   130598917.5521      -3331.565          26.000  
G04  25128636.207   132051873.6911       -708.425          39.000    25128644.901    98610199.3391       -528.914          40.000  
G05  23103120.542   121407567.1761       1545.179          28.000  
G12  24718437.382   129896264.4891      -3983.072          36.000  
G16  24970340.993   131219955.9391       3520.812          30.000  
G18  22482170.917   118144380.7311       3110.326          42.000  
G20  24804467.325   130348401.2161       3166.228          36.000  
G25  21457868.827   112761861.1201      -2956.264          39.000    21457878.420    84205323.0021      -2206.837          37.000  
G26  22623312.607   118886263.4701       2783.169          36.000    22623320.701    88778719.2981       2077.945          36.000  
G29  20284505.129   106595793.5441       -488.969          44.000  
G31  21871998.830   114938128.8521      -1413.406          43.000  
R01  23376614.007                        2065.013          25.000  
R08  23309043.185                        -499.649          32.000  
R09  24474425.508                        4196.880          23.000  
R14  23293712.698                       -4729.125          33.000  
R15  19674299.166                       -2341.698          42.000  
R16  20364939.746                        2226.830          25.000  
R17  19125322.515                       -1032.707          44.000  
R18  20558217.442                        2585.006          43.000  
R24  22207215.665                       -3984.772          30.000  
> 2021  4 16 13  0  7.9987845  0 37
C05  39354161.281   204927444.9031       -247.694          35.000  
C08  39214297.607   204199138.1791      -1213.963          29.000  
C13  37380756.741   194651408.9671       -590.337          29.000  
C14  25868013.447   134701447.4541        176.783          26.000  
C27  21391059.777   111388861.5181       -456.073          42.000  
C28  24229340.077   126168531.7051      -2965.825          37.000  
C30  23341576.963   121545589.6311       2283.925          40.000  
C36  23357784.942   121629926.5831       1229.916          41.000  
C37  26113143.547   135977990.2081      -3798.647          33.000  
C38  38508702.480   200524918.9281      -1025.694          30.000  
C42  26772757.106   139412771.8141       -936.401          30.000  
C46  22424819.121   116771917.1341      -2016.320          49.000  
E01                                                                                                                                  28647428.598   112418654.7001       2097.991          30.000  
E13                                                                                                                                  24713321.723    96980302.2981       1581.229          33.000  
E15                                                                                                                                  23233642.384    91173802.3171       -443.248          30.000  
E21                                                                                                                                  24501433.511    96148800.4001       1049.672          41.000  
E27                                                                                                                                  23683858.406    92940546.8081      -1151.054          39.000  
E30                                                                                                                                  26530969.992   104113224.4671      -2462.065          27.000  
G02  24852783.976   130602260.6871      -3329.738          26.000  
G04  25128771.414   132052584.1221       -708.270          39.000    25128779.508    98610728.1291       -528.825          42.000  
G05  23102824.947   121406022.5021       1543.430          30.000  
G12  24719194.358   129900243.0081      -3984.247          32.000  
G18  22481578.827   118141270.2131       3110.367          42.000  
G20  24803865.042   130345235.6351       3164.643          36.000  
G25  21458430.937   112764814.7901      -2957.744          39.000    21458441.130    84207531.7541      -2208.522          37.000  
G26  22622784.372   118883479.6161       2783.729          38.000    22622790.668    88776640.9721       2078.987          37.000  
G29  20284598.365   106596283.0631       -490.257          44.000  
G31  21872268.644   114939547.3591      -1414.078          44.000  
R07  24593378.358                       -3096.866          19.000  
R08  23309134.622                        -499.916          32.000  
R09  24473640.052                        4200.420          26.000  
R14  23294597.386                       -4730.639          34.000  
R15  19674739.861                       -2343.511          41.000  
R16  20364519.437                        2226.511          30.000  
R17  19125515.581                       -1032.940          45.000  
R18  20557717.988                        2588.519          43.000  
R24  22207965.146                       -3982.325          28.000  
> 2021  4 16 13  0  8.9987843  0 35
C05  39354148.090   204927375.5851       -248.159          35.000  
C08  39214469.987   204200035.0681      -1214.768          31.000  
C13  37380810.403   194651688.3201       -591.605          30.000  
C14  25867919.912   134700957.7831        177.903          28.000  
C27  21391088.857   111389012.6061       -456.691          43.000  
C28  24229852.722   126171200.9831      -2966.137          34.000  
C30  23341078.108   121542992.6231       2285.378          43.000  
C36  23357487.548   121628384.6821       1229.224          41.000  
C37  26113812.983   135981476.4471      -3799.468          34.000  
C38  38508842.483   200525648.0221      -1027.400          28.000  
C42  26772878.222   139413402.5141       -936.058          31.000  
C46  22425145.895   116773618.5361      -2016.419          49.000  
E01                                                                                                                                  28646834.109   112416322.9171       2093.893          32.000  
E13                                                                                                                                  24712858.544    96978485.5451       1581.881          33.000  
E15                                                                                                                                  23233696.047    91174013.4801       -444.258          31.000  
E21                                                                                                                                  24501105.837    96147515.4611       1050.007          41.000  
E27                                                                                                                                  23684091.645    92941461.9611      -1151.479          39.000  
E30                                                                                                                                  26531539.298   104115458.0071      -2465.037          27.000  
G04  25128844.863   132052970.5991       -708.567          39.000    25128854.156    98611020.7421       -529.358          41.000  
G16  24968937.364   131212595.9061       3523.523          29.000  
G18  22480927.078   118137844.8761       3110.469          42.000  
G20  24803201.901   130341756.4291       3163.526          35.000  
G25  21458935.488   112767466.4321      -2957.642          40.000    21458943.582    84209503.2291      -2208.772          36.000  
G26  22622195.280   118880380.5721       2784.179          34.000    22622200.976    88774325.9451       2078.718          35.000  
G29  20284630.443   106596452.4051       -490.815          43.000  
G31  21872477.599   114940645.0901      -1414.265          42.000  
R01  23375784.481                        2069.973          29.000  
R08  23309169.997                        -500.651          30.000  
R09  24472791.639                        4204.891          24.000  
R14  23295423.314                       -4732.232          31.000  
R15  19675117.600                       -2343.486          41.000  
R16  20364042.167                        2225.716          31.000  
R17  19125648.689                       -1034.361          44.000  
R18  20557190.953                        2583.015          43.000  
R24  22208651.071                       -3985.703          31.000  
> 2021  4 16 13  0  9.9987840  0 37
C05  39354105.520   204927153.8841       -249.440          35.000  
C08  39214611.789   204200773.7821      -1214.868          32.000  
C13  37380835.886   194651821.4821       -593.314          29.000  
C14  25867795.498   134700309.9641        179.189          26.000  
C27  21391085.859   111388997.4821       -455.655          41.000  
C28  24230329.392   126173683.6151      -2967.515          29.000  
C30  23340549.574   121540238.9471       2286.325          43.000  
C36  23357161.374   121626686.8401       1229.680          41.000  
C37  26114453.340   135984810.6131      -3798.784          33.000  
C38  38508950.708   200526211.1211      -1027.700          30.000  
C42  26772969.659   139413878.4451       -938.544          35.000  
C46  22425443.888   116775170.4731      -2016.093          48.000  
E01                                                                                                                                  28646210.241   112413875.3671       2094.873          29.000  
E13                                                                                                                                  24712365.385    96976550.9541       1581.538          34.000  
E15                                                                                                                                  23233719.731    91174105.7411       -443.961          31.000  
E21                                                                                                                                  24500749.084    96146113.0391       1049.151          42.000  
E27                                                                                                                                  23684295.204    92942261.3061      -1151.757          39.000  
E30                                                                                                                                  26532078.324   104117573.2771      -2464.742          28.000  
G04  25128890.731   132053211.2621       -710.086          40.000    25128899.425    98611197.7901       -530.933          39.000  
G05  23102084.160   121402150.2471       1540.835          31.000  
G12  24720561.112   129907424.5201      -3986.631          29.000  
G16  24968176.491   131208599.2351       3524.347          35.000  
G18  22480245.650   118134261.5041       3111.521          44.000  
G20  24802509.680   130338120.1851       3163.772          35.000  
G25  21459409.160   112769955.2881      -2957.865          39.000    21459416.955    84211360.8081      -2209.202          37.000  
G26  22621576.209   118877123.8191       2783.875          35.000    22621581.605    88771894.9371       2078.868          36.000  
G29  20284632.841   106596464.6941       -491.405          43.000  
G31  21872657.474   114941589.8781      -1412.734          43.000  
R01  23375306.612                        2070.953          25.000  
R07  24594376.068                       -3090.959          20.000  
R09  24471917.744                        4205.086          24.000  
R14  23296221.062                       -4732.358          30.000  
R15  19675467.457                       -2343.536          41.000  
R16  20363533.419                        2224.517          30.000  
R17  19125753.316                       -1034.277          43.000  
R18  20556597.064                        2589.931          42.000  
R24  22209313.912                       -3986.448          32.000  
> 2021  4 16 13  0 10.9987840  0 36
C05  39354156.185   204927418.2991       -251.384          37.000  
C08  39214846.826   204201997.5831      -1215.538          29.000  
C13  37380948.908   194652409.4361       -595.670          28.000  
C14  25867762.521   134700129.5801        180.729          28.000  
C27  21391171.900   111389444.7091       -457.421          41.000  
C28  24230898.998   126176649.5781      -2968.901          31.000  
C30  23340111.277   121537952.0141       2286.588          43.000  
C36  23356927.835   121625457.0521       1230.710          42.000  
C37  26115183.035   135988610.3491      -3799.994          31.000  
C42  26773150.434   139414819.4231       -942.237          25.000  
C46  22425829.721   116777180.0081      -2015.364          48.000  
E01                                                                                                                                  28645676.311   112411779.6541       2096.587          33.000  
E13                                                                                                                                  24711961.865    96974969.0201       1582.567          33.000  
E15                                                                                                                                  23233833.052    91174550.8271       -445.584          31.000  
E21                                                                                                                                  24500481.969    96145063.3861       1049.754          41.000  
E27                                                                                                                                  23684589.300    92943414.7641      -1151.035          39.000  
E30                                                                                                                                  26532705.790   104120036.3341      -2462.979          28.000  
G02  24854535.363   130611463.8991      -3329.084          28.000  
G04  25129025.638   132053920.1531       -709.975          40.000    25129034.332    98611727.9941       -530.111          38.000  
G05  23101790.064   121400610.2141       1539.638          32.000  
G12  24721318.987   129911407.2001      -3986.960          37.000  
G16  24967504.057   131205074.9111       3523.785          36.000  
G18  22479654.459   118131149.5701       3112.391          45.000  
G20  24801907.097   130334956.0351       3164.335          33.000  
G25  21459972.470   112772915.6331      -2958.793          39.000    21459979.665    84213568.8071      -2209.548          36.000  
G26  22621047.075   118874339.8621       2783.853          38.000    22621052.171    88769815.7611       2079.048          36.000  
G29  20284728.774   106596968.9781       -492.027          44.000  
G31  21872926.988   114943006.7691      -1413.473          43.000  
R01  23374922.578                        2070.820          26.000  
R07  24594954.068                       -3090.264          26.000  
R14  23297109.647                       -4731.697          33.000  
R15  19675904.555                       -2343.832          41.000  
R16  20363115.209                        2224.264          30.000  
R17  19125947.582                       -1035.893          44.000  
R18  20556116.197                        2589.223          42.000  
R24  22210060.995                       -3990.072          30.000  
> 2021  4 16 13  0 11.9987837  0 37
C05  39354113.014   204927192.9301       -249.871          37.000  
C08  39214990.127   204202743.7811      -1217.956          33.000  
C13  37380973.191   194652536.3681       -596.716          29.000  
C14  25867639.906   134699483.3071        174.773          25.000  
C27  21391171.600   111389443.8461       -457.977          41.000  
C28  24231379.565   126179151.3031      -2971.222          34.000  
C30  23339581.244   121535195.5231       2288.820          42.000  
C36  23356600.462   121623758.3941       1230.382          41.000  
C37  26115822.792   135991942.5181      -3797.536          29.000  
C38  38509257.396   200527808.6041      -1032.274          30.000  
C42  26773244.568   139415309.3731       -937.000          26.000  
C46  22426125.916   116778721.7811      -2014.688          47.000  
E01                                                                                                                                  28645052.743   112409330.0361       2097.027          35.000  
E13                                                                                                                                  24711468.107    96973033.0001       1583.112          34.000  
E15                                                                                                                                  23233856.736    91174643.5311       -445.921          32.000  
E21                                                                                                                                  24500124.617    96143660.7051       1049.662          41.000  
E27                                                                                                                                  23684792.559    92944212.2481      -1151.826          39.000  
E30                                                                                                                                  26533242.418   104122142.0281      -2463.161          29.000  
G04  25129070.007   132054153.2251       -709.444          41.000    25129079.300    98611903.8461       -530.084          34.000  
G05  23101407.528   121398597.9571       1538.883          30.000  
G12  24721989.923   129914933.5621      -3987.476          38.000  
G16  24966744.383   131201078.4631       3524.535          31.000  
G18  22478971.532   118127564.5391       3112.243          44.000  
G20  24801213.077   130331318.7841       3164.639          30.000  
G25  21460442.245   112775384.8661      -2958.952          39.000    21460453.937    84215430.0501      -2210.179          36.000  
G26  22620427.704   118871083.0891       2784.604          40.000    22620432.800    88767383.6911       2078.110          37.000  
G29  20284732.072   106596985.7561       -491.249          43.000  
G31  21873105.664   114943945.8511      -1412.820          44.000  
R01  23374448.306                        2066.688          27.000  
R07  24595442.729                       -3090.758          23.000  
R08  23309263.832                        -505.694          29.000  
R14  23297905.895                       -4731.507          34.000  
R15  19676254.712                       -2344.782          42.000  
R16  20362609.159                        2223.586          30.000  
R17  19126045.914                       -1036.744          44.000  
R18  20555543.293                        2588.108          41.000  
R24  22210715.741                       -3992.632          32.000  
> 2021  4 16 13  0 12.9987837  0 36
C05  39354160.082   204927438.2411       -250.549          36.000  
C08  39215225.464   204203968.9761      -1221.652          30.000  
C13  37381087.112   194653129.4471       -598.825          29.000  
C14  25867608.427   134699307.6881        174.908          22.000  
C27  21391260.339   111389905.2761       -458.792          42.000  
C28  24231949.770   126182120.6031      -2973.082          37.000  
C30  23339141.748   121532907.5211       2288.113          41.000  
C36  23356363.626   121622528.1691       1229.620          40.000  
C37  26116550.089   135995729.4751      -3797.707          29.000  
C38  38509455.858   200528841.5611      -1034.958          28.000  
C42  26773426.542   139416257.5111       -931.267          23.000  
C46  22426513.248   116780738.9871      -2015.576          47.000  
E01                                                                                                                                  28644518.213   112407232.9591       2096.869          36.000  
E13                                                                                                                                  24711064.586    96971449.8351       1583.408          35.000  
E15                                                                                                                                  23233970.057    91175088.5721       -447.260          31.000  
E21                                                                                                                                  24499856.602    96142611.1491       1049.013          40.000  
E27                                                                                                                                  23685085.756    92945363.5021      -1151.549          39.000  
E30                                                                                                                                  26533869.884   104124604.3961      -2464.387          30.000  
G04  25129208.811   132054883.5471       -712.861          38.000    25129214.507    98612434.1921       -530.781          36.000  
G12  24722748.098   129918917.4601      -3986.441          37.000  
G16  24966073.447   131197552.9841       3524.718          29.000  
G18  22478379.142   118124451.8981       3113.126          45.000  
G20  24800608.996   130328154.0661       3164.673          28.000  
G25  21461008.253   112778358.8421      -2960.576          41.000    21461016.947    84217639.4641      -2210.874          37.000  
G26  22619896.172   118868298.5201       2784.162          40.000    22619902.767    88765304.7391       2080.051          37.000  
G29  20284825.607   106597477.3351       -493.399          43.000  
G31  21873373.679   114945354.2541      -1412.199          45.000  
R07  24596019.830                       -3090.424          24.000  
R08  23309354.969                        -509.130          31.000  
R09  24469472.037                        4201.142          22.000  
R14  23298795.080                       -4731.097          35.000  
R15  19676691.510                       -2345.181          42.000  
R16  20362187.651                        2223.603          28.000  
R17  19126237.781                       -1037.529          43.000  
R18  20555046.238                        2589.213          41.000  
R24  22211461.026                       -3993.429          35.000  
> 2021  4 16 13  0 13.9987835  0 35
C05  39354147.491   204927372.3601       -250.414          36.000  
C08  39215400.543   204204881.3661      -1222.201          29.000  
C13  37381141.075   194653410.7011       -598.147          31.000  
C14  25867517.890   134698822.1001        175.612          22.000  
C27  21391288.819   111390053.9181       -459.142          42.000  
C28  24232460.617   126184781.0871      -2974.301          40.000  
C30  23338641.695   121530306.2231       2289.336          41.000  
C36  23356065.932   121620987.3271       1228.851          40.000  
C37  26117218.326   135999208.8371      -3795.500          29.000  
C38  38509594.962   200529566.5881      -1036.085          31.000  
C46  22426840.022   116782441.0151      -2015.110          47.000  
E01                                                                                                                                  28643924.324   112404901.2331       2096.093          36.000  
E13                                                                                                                                  24710601.107    96969631.5291       1583.301          34.000  
E15                                                                                                                                  23234024.619    91175302.3551       -447.366          32.000  
E21                                                                                                                                  24499529.229    96141326.4411       1049.519          41.000  
E27                                                                                                                                  23685319.594    92946281.0911      -1152.714          38.000  
E30                                                                                                                                  26534437.691   104126832.1481      -2462.500          29.000  
G04  25129284.658   132055281.2241       -713.823          34.000    25129290.354    98612732.4781       -531.748          41.000  
G05  23100761.176   121395208.8881       1534.387          35.000  
G12  24723447.214   129922591.1061      -3986.732          30.000  
G16  24965343.153   131193713.7251       3524.046          26.000  
G18  22477727.093   118121023.0951       3114.240          44.000  
G25  21461512.204   112781007.7931      -2960.868          41.000    21461520.299    84219614.4851      -2210.649          37.000  
G26  22619306.180   118865199.2031       2784.506          42.000    22619313.075    88762989.6811       2079.478          37.000  
G29  20284859.784   106597657.5511       -493.506          43.000  
G31  21873583.233   114946455.4761      -1412.386          45.000  
R07  24596536.672                       -3091.012          29.000  
R08  23309389.445                        -510.287          29.000  
R09  24468624.824                        4200.257          21.000  
R14  23299622.507                       -4730.415          33.000  
R15  19677068.649                       -2345.104          41.000  
R16  20361706.784                        2222.631          30.000  
R17  19126372.688                       -1039.171          43.000  
R18  20554494.020                        2591.792          40.000  
R24  22212149.049                       -3992.632          29.000  
> 2021  4 16 13  0 14.9987832  0 34
C05  39354107.019   204927162.0221       -249.906          35.000  
C08  39215548.041   204205648.7611      -1221.628          24.000  
C13  37381165.957   194653539.9881       -599.277          29.000  
C27  21391285.521   111390036.7431       -460.004          43.000  
C28  24232944.182   126187299.0221      -2976.552          37.000  
C30  23338112.261   121527547.4561       2290.314          41.000  
C36  23355740.657   121619289.9381       1229.478          40.000  
C37  26117857.484   136002537.7201      -3796.612          31.000  
C38  38509704.087   200530134.6931      -1034.925          30.000  
C42  26773636.397   139417350.6101       -922.832          20.000  
C46  22427137.716   116783991.1501      -2015.290          46.000  
E01                                                                                                                                  28643299.556   112402451.1661       2097.303          34.000  
E13                                                                                                                                  24710107.049    96967694.5571       1585.223          33.000  
E15                                                                                                                                  23234049.202    91175398.7851       -447.069          33.000  
E21                                                                                                                                  24499172.176    96139923.6411       1049.815          41.000  
E27                                                                                                                                  23685523.753    92947081.8961      -1152.720          38.000  
E30                                                                                                                                  26534974.619   104128938.9771      -2463.388          28.000  
G02  24856830.874   130623527.0941      -3325.763          24.000  
G04  25129330.227   132055521.2281       -713.396          29.000    25129337.422    98612917.5161       -532.648          41.000  
G12  24724116.350   129926107.4971      -3987.555          27.000  
G16  24964582.279   131189716.8131       3525.626          27.000  
G18  22477044.466   118117436.4341       3114.302          41.000  
G25  21461986.176   112783498.1601      -2961.530          42.000    21461993.371    84221471.2751      -2211.218          35.000  
G26  22618685.610   118861941.6821       2785.284          42.000    22618693.404    88760557.6741       2079.160          38.000  
G29  20284865.480   106597686.7871       -494.539          43.000  
G31  21873760.711   114947387.9281      -1412.222          45.000  
R07  24597031.330                       -3091.671          26.000  
R08  23309392.443                        -513.098          31.000  
R14  23300421.454                       -4730.313          35.000  
R15  19677418.507                       -2346.363          40.000  
R16  20361204.032                        2222.299          30.000  
R17  19126477.015                       -1039.280          43.000  
R18  20553917.819                        2598.892          41.000  
R24  22212807.393                       -3989.842          31.000  
> 2021  4 16 13  0 15.9987832  0 36
C05  39354154.086   204927407.0031       -250.270          35.000  
C08  39215785.477   204206885.6781      -1224.821          23.000  
C13  37381281.677   194654142.6511       -599.824          27.000  
C27  21391374.260   111390499.0031       -460.944          41.000  
C28  24233515.586   126190274.7191      -2975.668          36.000  
C30  23337673.365   121525257.4361       2290.238          42.000  
C36  23355504.721   121618060.0371       1228.851          39.000  
C37  26118586.279   136006332.5931      -3794.589          30.000  
C38  38509903.149   200531170.6311      -1037.977          31.000  
C42  26773816.273   139418286.3191       -919.162          21.000  
C46  22427525.047   116786007.5011      -2015.558          47.000  
E01                                                                                                                                  28642765.026   112400353.9771       2096.899          33.000  
E13                                                                                                                                  24709702.629    96966108.9051       1585.608          33.000  
E15                                                                                                                                  23234163.723    91175848.4491       -448.268          33.000  
E21                                                                                                                                  24498904.461    96138874.1811       1049.068          41.000  
E27                                                                                                                                  23685816.650    92948231.4061      -1151.822          38.000  
E30                                                                                                                                  26535602.984   104131405.2471      -2464.918          31.000  
G04  25129464.833   132056228.1931       -713.301          33.000    25129472.029    98613445.5521       -533.562          38.000  
G05  23100085.444   121391667.0711       1535.000          32.000  
G12  24724873.926   129930089.4281      -3988.707          32.000  
G16  24963911.344   131186190.5031       3526.882          34.000  
G18  22476451.776   118114322.3551       3114.594          40.000  
G20  24798651.950   130317870.2751       3165.402          35.000  
G25  21462548.887   112786455.1781      -2961.952          42.000    21462556.981    84223682.4581      -2211.073          36.000  
G26  22618156.476   118859156.5391       2784.450          41.000    22618163.371    88758478.4111       2079.201          38.000  
G29  20284959.315   106598179.7271       -495.201          43.000  
G31  21874029.624   114948800.8911      -1413.023          45.000  
R07  24597608.730                       -3091.762          29.000  
R08  23309485.379                        -513.686          26.000  
R09  24466956.478                        4197.688          21.000  
R14  23301309.139                       -4730.359          34.000  
R15  19677865.797                       -2347.414          38.000  
R16  20360788.519                        2221.564          30.000  
R17  19126673.080                       -1040.492          42.000  
R18  20553426.759                        2589.857          42.000  
R24  22213553.877                       -3992.689          27.000  
> 2021  4 16 13  0 16.9987832  0 35
C05  39354201.153   204927652.4071       -250.651          31.000  
C08  39216022.013   204208116.7751      -1224.592          26.000  
C13  37381398.296   194654750.0861       -600.510          23.000  
C14  25867322.126   134697834.4611        169.037          16.000  
C27  21391463.898   111390965.7671       -460.887          42.000  
C28  24234088.490   126193258.0501      -2976.583          38.000  
C30  23337233.270   121522967.4461       2289.763          42.000  
C36  23355271.182   121616831.1911       1228.301          42.000  
C37  26119315.374   136010129.1181      -3795.192          33.000  
C38  38510102.811   200532210.7941      -1038.849          31.000  
C42  26773997.048   139419227.6351       -924.507          25.000  
C46  22427911.480   116788020.0571      -2015.776          47.000  
E01                                                                                                                                  28642229.897   112398256.2811       2098.065          30.000  
E13                                                                                                                                  24709299.108    96964523.5551       1584.334          33.000  
E15                                                                                                                                  23234278.544    91176299.3091       -448.807          34.000  
E21                                                                                                                                  24498637.046    96137824.6971       1049.938          41.000  
