     3.03           OBSERVATION DATA    M: Mixed            RINEX VERSION / TYPE
Geo++ RINEX Logger  Geo++               20200416 155211 UTC PGM / RUN BY / DATE
************************************************************COMMENT
This file was generated by the Geo++ RINEX Logger App       COMMENT
for Android devices (Version 2.1.6). If you encounter       COMMENT
any issues, please send an email to android@geopp.de        COMMENT
Filtering Mode: BEST                                        COMMENT
************************************************************COMMENT
Geo++                                                       MARKER NAME
GEODETIC                                                    MARKER TYPE
Geo++               Geo++                                   OBSERVER / AGENCY
unknown             HUAWEI              VKY-L29             REC # / TYPE / VERS
unknown             VKY-L29                                 ANT # / TYPE
  3544111.0879  1342706.3398  5113030.8460                  APPROX POSITION XYZ
        0.0000        0.0000        0.0000                  ANTENNA: DELTA H/E/N
G    8 C1C L1C D1C S1C C5Q L5Q D5Q S5Q                      SYS / # / OBS TYPES
R    4 C1C L1C D1C S1C                                      SYS / # / OBS TYPES
E   12 C1B L1B D1B S1B C1C L1C D1C S1C C5Q L5Q D5Q S5Q      SYS / # / OBS TYPES
C    4 C2I L2I D2I S2I                                      SYS / # / OBS TYPES
J    8 C1C L1C D1C S1C C5Q L5Q D5Q S5Q                      SYS / # / OBS TYPES
  2020     4    16    15    52   29.0004973     GPS         TIME OF FIRST OBS
 24 R01  1 R02 -4 R03  5 R04  6 R05  1 R06 -4 R07  5 R08  6 GLONASS SLOT / FRQ #
    R09 -2 R10 -5 R11  0 R12 -1 R13 -2 R14 -7 R15  0 R16 -1 GLONASS SLOT / FRQ #
    R17  4 R18 -3 R19  3 R20  2 R21  4 R22 -3 R23  3 R24  2 GLONASS SLOT / FRQ #
G L1C                                                       SYS / PHASE SHIFT
G L5Q -0.25000                                              SYS / PHASE SHIFT
R L1C                                                       SYS / PHASE SHIFT
E L1B                                                       SYS / PHASE SHIFT
E L1C +0.50000                                              SYS / PHASE SHIFT
E L5Q -0.25000                                              SYS / PHASE SHIFT
C L2I                                                       SYS / PHASE SHIFT
J L1C                                                       SYS / PHASE SHIFT
J L5Q -0.25000                                              SYS / PHASE SHIFT
 C1C    0.000 C1P    0.000 C2C    0.000 C2P    0.000        GLONASS COD/PHS/BIS
                                                            END OF HEADER
> 2020  4 16 15 52 29.0004973  2  0
> 2020  4 16 15 52 29.0004973  0 16
G05  24548688.597                       -2750.282          30.944  
G16  21127755.959                        1725.778          36.153  
G18  20500931.301                        -786.142          38.556  
G20  22567191.458                        3482.476          30.627  
G21  20820871.910                        -222.015          33.952  
G26  20750798.421                        -559.714          28.144  
G27  23303375.309                        3526.710          26.706  
G29  22739329.290                       -2671.993          31.252  
R03  23637059.604                       -2622.025          36.336  
R04  21687888.487                         678.449          35.388  
R05  22546336.996                        3952.537          34.016  
R10  21558493.865                       -3530.916          29.769  
R11  20360617.638                         636.903          29.501  
R12  22924914.312                        3911.519          30.231  
R20  19682933.788                       -1006.822          25.995  
R21  20754559.018                        2865.149          27.002  
> 2020  4 16 15 52 30.0004975  0 16
G05  24549271.693                       -2750.876          31.056  
G16  21127493.041                        1726.189          35.546  
G18  20501145.952                        -787.705          38.284  
G20  22566590.375                        3482.473          29.151  
G21  20820972.641                        -223.112          31.924  
G26  20750965.106                        -560.738          28.764  
G27  23302760.734                        3526.927          24.419  
G29  22739905.791                       -2671.850          32.383  
R03  23637604.627                       -2621.794          36.925  
R04  21687823.732                         677.623          36.594  
R05  22545643.576                        3952.085          33.939  
R10  21559168.398                       -3531.476          28.256  
R11  20360552.883                         637.137          27.587  
R12  22924280.551                        3910.652          30.399  
R20  19683194.308                       -1008.819          26.129  
R21  20754073.054                        2864.120          27.043  
> 2020  4 16 15 52 31.0004977  0 15
G05  24549861.385                       -2751.419          28.615  
G16  21127219.930                        1726.296          39.471  
G18  20501354.308                        -788.527          36.159  
G20  22565979.997                        3484.023          31.779  
G21  20821085.662                        -222.073          32.450  
G26  20751128.493                        -561.613          27.036  
G27  23302151.556                        3529.298          29.911  
G29  22740490.086                       -2671.045          33.060  
R03  23638171.235                       -2621.572          32.636  
R05  22544993.626                        3952.145          32.766  
R10  21559921.177                       -3532.489          30.775  
R11  20360471.039                         636.918          36.278  
R12  22923582.034                        3910.571          30.423  
R20  19683449.731                       -1009.835          23.530  
R21  20753598.483                        2862.849          31.552  
> 2020  4 16 15 52 32.0004979  0 16
G05  24550474.460                       -2751.332          27.971  
G16  21126954.614                        1726.891          35.348  
G18  20501588.745                        -788.483          34.226  
G20  22565380.712                        3484.648          29.595  
G21  20821183.395                        -221.943          31.976  
G26  20751306.569                        -561.074          31.881  
G27  23301542.378                        3530.557          26.102  
G29  22741054.296                       -2671.126          36.197  
R03  23638718.955                       -2621.591          28.553  
R04  21687694.821                         676.535          37.370  
R05  22544281.619                        3951.181          30.817  
R10  21560643.077                       -3533.516          28.547  
R11  20360413.779                         639.282          36.257  
R12  22922898.208                        3909.486          26.568  
R20  19683697.060                       -1010.210          22.995  
R21  20753123.312                        2862.221          28.493  
> 2020  4 16 15 52 33.0004981  0 16
G05  24551057.557                       -2749.796          24.364  
G16  21126654.821                        1726.371          34.865  
G18  20501768.621                        -789.371          36.653  
G20  22564767.636                        3485.195          34.617  
G21  20821292.219                        -221.393          35.044  
G26  20751469.656                        -561.204          29.964  
G27  23300916.411                        3531.412          31.399  
G29  22741621.803                       -2670.146          36.357  
R03  23639242.393                       -2621.637          25.665  
R04  21687614.477                         676.564          35.802  
R05  22543588.798                        3951.526          28.887  
R10  21561370.973                       -3534.123          26.083  
R11  20360366.112                         637.006          32.449  
R12  22922224.874                        3909.449          25.992  
R20  19683927.301                       -1010.689          23.664  
R21  20752655.036                        2862.632          31.302  
> 2020  4 16 15 52 34.0004983  0 16
G05  24551640.953                       -2749.379          22.256  
G16  21126406.893                        1725.626          33.381  
G18  20501980.574                        -788.210          34.552  
G20  22564180.943                        3483.126          32.979  
G21  20821403.742                        -221.066          32.708  
G26  20751628.247                        -561.487          28.157  
G27  23300307.533                        3532.150          30.065  
G29  22742204.000                       -2668.999          37.102  
R03  23639779.022                       -2620.991          22.715  
R04  21687563.512                         674.166          34.420  
R05  22542942.146                        3951.665          30.868  
R10  21562099.169                       -3534.084          26.488  
R11  20360285.168                         635.985          31.025  
R12  22921576.123                        3908.256          23.296  
R20  19684164.437                       -1011.621          21.927  
R21  20752166.674                        2862.761          31.158  
> 2020  4 16 15 52 35.0004985  0 16
G05  24552232.143                       -2750.151          19.633  
G16  21126142.176                        1728.962          29.583  
G18  20502191.628                        -789.270          35.896  
G20  22563580.158                        3484.247          32.564  
G21  20821486.185                        -224.097          32.031  
G26  20751812.319                        -562.392          25.732  
G27  23299699.254                        3531.933          34.845  
G29  22742759.815                       -2667.769          32.252  
R03  23640307.855                       -2623.249          23.878  
R04  21687481.069                         673.752          33.429  
R05  22542261.617                        3950.924          34.715  
R10  21562816.873                       -3533.222          21.083  
R11  20360231.805                         634.730          28.689  
R12  22920895.894                        3908.373          34.693  
R20  19684412.665                       -1011.231          24.876  
R21  20751690.004                        2862.408          31.109  
> 2020  4 16 15 52 36.0004987  0 14
G05  24552806.246                       -2748.404          25.088  
G16  21125862.770                        1728.427          28.089  
G18  20502413.175                        -789.802          37.714  
G20  22562986.869                        3484.036          38.785  
G21  20821611.798                        -223.932          33.792  
G26  20751980.803                        -562.799          24.492  
G27  23299094.572                        3532.745          38.368  
R03  23640872.365                       -2624.488          19.894  
R04  21687385.435                         675.049          32.237  
R05  22541599.975                        3950.415          31.397  
R11  20360164.651                         632.634          32.650  
R12  22920219.862                        3908.393          35.203  
R20  19684655.197                       -1009.459          24.988  
R21  20751208.837                        2862.072          32.951  
> 2020  4 16 15 52 37.0004989  0 16
G05  24553375.552                       -2748.846          29.605  
G16  21125585.761                        1726.139          28.438  
G18  20502621.530                        -789.082          37.636  
G20  22562368.997                        3482.625          36.068  
G21  20821704.134                        -225.362          33.430  
G26  20752122.904                        -563.154          25.439  
G27  23298480.897                        3533.828          37.950  
G29  22743899.326                       -2668.628          31.959  
R03  23641496.233                       -2625.328          25.283  
R04  21687332.372                         676.313          31.800  
R05  22540887.368                        3947.712          29.749  
R10  21564246.883                       -3533.432          23.850  
R11  20360136.471                         631.637          33.555  
R12  22919525.842                        3908.553          35.879  
R20  19684917.515                       -1009.042          24.483  
R21  20750765.744                        2862.517          32.677  
> 2020  4 16 15 52 38.0004991  0 16
G05  24553961.946                       -2750.355          30.040  
G16  21125322.244                        1723.221          28.713  
G18  20502816.096                        -790.081          36.732  
G20  22561762.817                        3483.453          36.506  
G21  20821806.363                        -225.038          34.015  
G26  20752278.197                        -563.819          25.425  
G27  23297856.729                        3533.108          37.668  
G29  22744462.936                       -2669.134          29.952  
R03  23642017.872                       -2625.180          25.977  
R04  21687300.894                         674.920          32.253  
R05  22540164.569                        3947.116          25.952  
R10  21564967.584                       -3533.374          23.919  
R11  20360050.430                         630.464          33.852  
R12  22918874.993                        3908.674          33.855  
R20  19685207.714                       -1009.630          25.254  
R21  20750269.287                        2862.944          32.553  
> 2020  4 16 15 52 39.0004993  0 16
G05  24554535.449                       -2751.463          29.668  
G16  21125053.630                        1721.463          27.844  
G18  20503028.649                        -790.809          37.583  
G20  22561156.037                        3484.198          37.903  
G21  20821884.309                        -223.883          32.753  
G26  20752437.387                        -564.045          25.518  
G27  23297239.157                        3531.593          38.394  
G29  22745025.946                       -2669.384          29.135  
R03  23642545.806                       -2625.943          26.530  
R04  21687207.958                         671.738          31.958  
R05  22539514.319                        3948.277          28.570  
R10  21565686.186                       -3534.737          27.250  
R11  20359985.076                         630.453          34.666  
R12  22918195.363                        3908.523          34.393  
R20  19685456.842                       -1011.223          25.976  
R21  20749813.003                        2863.379          33.151  
> 2020  4 16 15 52 40.0004995  0 16
G05  24555126.640                       -2751.538          30.336  
G16  21124790.412                        1720.172          28.318  
G18  20503249.296                        -791.471          37.375  
G20  22560558.550                        3484.266          37.439  
G21  20822006.625                        -222.714          33.168  
G26  20752619.960                        -563.976          26.355  
G27  23296633.876                        3531.801          37.840  
G29  22745584.460                       -2669.901          27.090  
R03  23643091.428                       -2627.239          26.583  
R04  21687130.912                         670.993          31.765  
R05  22538851.178                        3949.892          29.444  
R10  21566411.384                       -3535.918          26.464  
R11  20359945.503                         631.258          33.987  
R12  22917542.715                        3909.176          34.777  
R20  19685687.982                       -1011.714          24.651  
R21  20749312.350                        2861.956          33.147  
> 2020  4 16 15 52 41.0004997  0 16
G05  24555713.034                       -2751.936          29.623  
G16  21124525.395                        1720.145          28.332  
G18  20503448.058                        -792.129          37.108  
G20  22559952.370                        3484.565          37.372  
G21  20822102.259                        -222.936          33.816  
G26  20752819.322                        -566.670          26.290  
G27  23296010.308                        3531.188          37.418  
G29  22746141.474                       -2669.718          25.727  
R03  23643633.753                       -2626.664          26.234  
R04  21687063.458                         671.029          33.251  
R05  22538164.353                        3950.308          30.796  
R10  21567130.886                       -3535.743          27.386  
R11  20359867.857                         630.585          32.888  
R12  22916836.404                        3909.680          33.950  
R20  19685924.518                       -1012.067          24.462  
R21  20748814.694                        2861.418          32.282  
> 2020  4 16 15 52 42.0004999  0 16
G05  24556299.428                       -2752.244          29.343  
G16  21124259.479                        1719.653          27.225  
G18  20503670.204                        -792.243          37.734  
G20  22559353.385                        3484.564          37.189  
G21  20822221.276                        -224.694          33.276  
G26  20752993.502                        -567.307          25.738  
G27  23295406.526                        3530.325          37.561  
G29  22746737.162                       -2670.570          27.250  
R03  23644203.958                       -2627.257          24.798  
R04  21687016.091                         671.164          33.141  
R05  22537510.506                        3950.014          30.218  
R10  21567852.187                       -3535.966          27.020  
R11  20359821.089                         627.460          33.060  
R12  22916199.945                        3907.538          33.194  
R20  19686178.742                       -1011.157          23.911  
R21  20748375.499                        2862.046          31.906  
> 2020  4 16 15 52 43.0005000  0 16
G05  24556848.048                       -2753.212          29.956  
G16  21123953.092                        1719.223          25.793  
G18  20503855.776                        -791.865          37.622  
G20  22558732.514                        3482.897          37.812  
G21  20822283.633                        -224.771          33.116  
G26  20753120.614                        -568.112          26.291  
G27  23294780.259                        3531.024          37.621  
G29  22747292.377                       -2672.161          26.667  
R03  23644731.293                       -2627.734          27.028  
R04  21686934.248                         669.733          32.724  
R05  22536805.994                        3948.976          29.347  
R10  21568549.504                       -3535.921          26.937  
R11  20359740.745                         626.531          32.945  
R12  22915447.466                        3905.967          32.884  
R20  19686417.077                       -1010.931          23.641  
R21  20747874.246                        2862.943          33.254  
> 2020  4 16 15 52 44.0005002  0 16
G05  24557427.247                       -2753.467          28.863  
G16  21123684.478                        1719.480          28.322  
G18  20504058.436                        -792.332          37.981  
G20  22558115.841                        3480.796          37.210  
G21  20822382.265                        -225.332          33.289  
G26  20753277.105                        -568.193          27.115  
G27  23294150.995                        3530.890          37.518  
G29  22747859.884                       -2672.470          27.883  
R03  23645294.004                       -2626.812          26.819  
R04  21686859.600                         668.646          32.713  
R05  22536108.377                        3948.984          28.516  
R10  21569289.691                       -3536.987          27.351  
R11  20359686.482                         626.655          33.517  
R12  22914799.015                        3908.348          31.637  
R20  19686655.712                       -1009.579          23.601  
R21  20747371.793                        2862.532          33.798  
> 2020  4 16 15 52 44.9995004  0 16
G05  24558024.733                       -2753.675          29.538  
G16  21123429.054                        1719.695          29.163  
G18  20504270.989                        -793.650          38.248  
G20  22557506.363                        3480.637          37.294  
G21  20822489.291                        -224.914          33.271  
G26  20753441.092                        -568.871          26.681  
G27  23293549.911                        3531.103          37.710  
G29  22748424.393                       -2671.167          27.890  
R03  23645842.924                       -2626.254          24.410  
R04  21686781.953                         667.510          31.746  
R05  22535425.450                        3947.289          27.844  
R10  21570025.682                       -3538.946          26.902  
R11  20359649.008                         627.008          34.111  
R12  22914125.381                        3907.376          31.788  
R20  19686889.850                       -1007.648          24.387  
R21  20746942.191                        2862.437          34.671  
> 2020  4 16 15 52 45.9995006  0 16
G05  24558610.828                       -2752.836          28.516  
G16  21123167.036                        1719.377          28.549  
G18  20504499.430                        -794.039          38.652  
G20  22556924.766                        3481.574          37.038  
G21  20822605.011                        -225.580          33.176  
G26  20753634.758                        -569.151          27.248  
G27  23292944.330                        3530.047          37.787  
G29  22748985.005                       -2670.054          25.854  
R03  23646406.533                       -2626.829          21.575  
R04  21686742.980                         667.975          33.091  
R05  22534736.227                        3946.081          27.081  
R10  21570746.983                       -3538.618          26.918  
R11  20359565.666                         624.147          34.454  
R12  22913460.441                        3906.657          31.191  
R20  19687135.680                       -1011.024          24.757  
R21  20746458.925                        2861.407          35.586  
> 2020  4 16 15 52 46.9995008  0 16
G05  24559179.234                       -2753.290          28.589  
G16  21122890.627                        1718.354          30.258  
G18  20504698.193                        -794.600          39.116  
G20  22556291.005                        3481.290          36.483  
G21  20822686.854                        -227.270          32.821  
G26  20753798.744                        -568.305          27.381  
G27  23292311.768                        3530.265          37.300  
G29  22749543.519                       -2669.707          24.684  
R03  23646914.981                       -2628.761          23.231  
R04  21686651.843                         667.351          32.476  
R05  22534055.098                        3945.212          27.631  
R10  21571464.386                       -3539.445          27.077  
R11  20359532.689                         622.291          35.531  
R12  22912767.921                        3907.954          31.383  
R20  19687402.495                       -1013.448          25.298  
R21  20745998.744                        2859.118          36.500  
> 2020  4 16 15 52 47.9995010  0 16
G05  24559758.733                       -2753.994          28.447  
G16  21122638.202                        1717.378          30.497  
G18  20504920.639                        -795.268          38.769  
G20  22555726.495                        3480.441          36.800  
G21  20822808.869                        -227.402          32.887  
G26  20753963.330                        -568.734          28.490  
G27  23291716.680                        3530.302          37.485  
G29  22750106.529                       -2670.704          24.245  
R03  23647490.883                       -2630.735          24.116  
R04  21686629.958                         664.308          33.044  
R05  22533376.968                        3945.335          26.009  
R10  21572194.680                       -3539.910          27.440  
R11  20359472.730                         618.832          35.612  
R12  22912111.975                        3905.931          30.646  
R20  19687641.429                       -1015.473          26.286  
R21  20745520.875                        2857.915          36.898  
> 2020  4 16 15 52 48.9995012  0 16
G05  24560332.236                       -2754.022          29.644  
G16  21122361.194                        1716.801          31.221  
G18  20505116.703                        -795.544          39.157  
G20  22555095.133                        3481.592          36.341  
G21  20822900.606                        -229.444          33.202  
G26  20754135.411                        -569.778          29.525  
G27  23291085.617                        3531.338          37.214  
G29  22750675.535                       -2670.808          24.582  
R03  23648021.815                       -2633.226          23.949  
R04  21686513.339                         663.112          32.121  
R05  22532687.445                        3945.725          26.198  
R10  21572919.878                       -3539.812          27.207  
R11  20359402.879                         619.616          35.167  
R12  22911404.465                        3903.887          30.947  
R20  19687865.374                       -1014.915          26.101  
R21  20745028.616                        2858.318          36.805  
> 2020  4 16 15 52 49.9995014  0 16
G05  24560918.330                       -2754.343          29.304  
G16  21122103.372                        1716.302          31.002  
G18  20505341.847                        -795.759          39.183  
G20  22554519.831                        3480.071          36.387  
G21  20823021.422                        -228.372          33.460  
G26  20754310.190                        -570.840          29.625  
G27  23290491.428                        3530.750          37.241  
G29  22751248.738                       -2672.929          22.474  
R03  23648576.131                       -2633.545          24.291  
R04  21686477.364                         662.275          32.612  
R05  22532036.296                        3945.268          26.175  
R10  21573639.080                       -3539.374          26.840  
R11  20359370.201                         621.256          35.972  
R12  22910761.410                        3903.456          31.032  
R20  19688146.280                       -1013.854          26.182  
R21  20744566.336                        2857.232          35.957  
> 2020  4 16 15 52 50.9995016  0 16
G05  24561512.519                       -2753.902          30.124  
G16  21121815.571                        1715.765          30.337  
G18  20505539.710                        -795.743          39.043  
G20  22553897.162                        3479.942          36.284  
G21  20823100.268                        -228.164          33.524  
G26  20754485.868                        -572.339          29.737  
G27  23289861.564                        3530.548          37.542  
G29  22751806.652                       -2674.433          23.681  
R03  23649134.345                       -2633.441          25.439  
R04  21686428.198                         660.717          31.921  
R05  22531361.163                        3945.146          27.149  
R10  21574373.572                       -3539.264          27.567  
R11  20359313.541                         620.842          35.465  
R12  22910082.380                        3903.165          30.568  
R20  19688394.808                       -1013.963          26.831  
R21  20744071.978                        2857.371          36.021  
> 2020  4 16 15 52 51.9995018  0 16
G05  24562083.923                       -2753.816          30.146  
G16  21121540.062                        1715.968          29.537  
G18  20505750.464                        -797.345          39.139  
G20  22553290.682                        3479.177          36.362  
G21  20823216.887                        -227.966          33.451  
G26  20754648.056                        -572.818          30.208  
G27  23289261.080                        3529.380          38.089  
G29  22752388.549                       -2674.631          24.652  
R03  23649673.971                       -2634.283          25.639  
R04  21686326.868                         659.974          31.733  
R05  22530682.433                        3943.624          28.029  
R10  21575096.671                       -3539.896          25.981  
R11  20359255.381                         619.766          35.179  
R12  22909412.943                        3901.099          29.975  
R20  19688627.747                       -1014.681          26.621  
R21  20743603.702                        2856.358          35.661  
> 2020  4 16 15 52 52.9995020  0 16
G05  24562687.106                       -2754.718          30.876  
G16  21121274.446                        1715.168          30.743  
G18  20505969.613                        -797.278          38.764  
G20  22552696.793                        3480.124          36.359  
G21  20823309.823                        -228.949          33.826  
G26  20754818.938                        -573.175          30.563  
G27  23288641.709                        3528.730          37.376  
G29  22752966.849                       -2673.928          22.927  
R03  23650240.279                       -2634.916          26.402  
R04  21686298.688                         657.951          33.573  
R05  22530006.401                        3942.448          27.809  
R10  21575808.379                       -3540.525          24.866  
R11  20359173.837                         617.775          34.775  
R12  22908738.410                        3899.885          28.731  
R20  19688908.652                       -1015.727          26.786  
R21  20743126.732                        2857.107          35.846  
> 2020  4 16 15 52 53.9995022  0 16
G05  24563286.690                       -2755.373          30.341  
G16  21121043.006                        1715.087          31.335  
G18  20506188.761                        -798.104          39.141  
G20  22552104.103                        3480.705          35.906  
G21  20823439.033                        -229.005          33.321  
G26  20754998.214                        -573.498          30.114  
G27  23288050.218                        3528.482          37.147  
G29  22753551.144                       -2673.242          24.861  
R03  23650821.577                       -2635.385          26.395  
R04  21686239.928                         658.551          33.532  
R05  22529320.776                        3942.139          27.487  
R10  21576508.994                       -3539.360          25.975  
R11  20359120.774                         615.330          34.426  
R12  22908069.573                        3899.943          29.568  
R20  19689146.987                       -1017.829          26.191  
R21  20742659.356                        2857.284          34.604  
> 2020  4 16 15 52 54.9995024  0 16
G05  24563866.489                       -2756.567          29.814  
G16  21120779.788                        1714.635          31.853  
G18  20506398.316                        -798.545          38.623  
G20  22551497.923                        3480.094          36.248  
G21  20823544.860                        -229.822          33.568  
G26  20755168.496                        -574.302          30.111  
G27  23287426.050                        3529.214          36.883  
G29  22754126.146                       -2673.977          24.846  
R03  23651363.901                       -2636.082          23.152  
R04  21686178.471                         658.468          33.294  
R05  22528651.939                        3941.530          27.907  
R10  21577234.791                       -3539.774          24.653  
R11  20359078.203                         616.263          33.986  
R12  22907411.529                        3899.910          29.497  
R20  19689375.129                       -1018.482          26.567  
R21  20742171.893                        2856.579          34.533  
> 2020  4 16 15 52 55.9995026  0 16
G05  24564436.395                       -2757.069          28.955  
G16  21120507.577                        1713.847          31.868  
G18  20506606.072                        -799.164          38.199  
G20  22550896.839                        3478.991          36.160  
G21  20823636.596                        -230.790          33.440  
G26  20755345.074                        -574.446          30.577  
G27  23286815.073                        3529.261          36.895  
G29  22754720.035                       -2673.161          24.291  
R03  23651887.639                       -2634.143          21.145  
R04  21686116.714                         657.391          32.406  
R05  22527954.322                        3941.904          27.581  
R10  21577952.494                       -3539.225          26.072  
R11  20359001.756                         615.837          33.872  
R12  22906754.084                        3900.693          28.948  
R20  19689604.171                       -1019.095          26.254  
R21  20741718.607                        2856.856          34.933  
> 2020  4 16 15 52 56.9995028  0 16
G05  24565011.396                       -2756.559          29.128  
G16  21120228.770                        1713.523          32.551  
G18  20506811.130                        -798.772          38.656  
G20  22550285.562                        3477.260          36.336  
G21  20823742.723                        -234.561          33.432  
G26  20755480.880                        -574.910          30.410  
G27  23286191.505                        3528.902          37.147  
G29  22755296.236                       -2674.114          24.400  
R03  23652393.988                       -2634.057          21.704  
R04  21686046.562                         656.073          32.166  
R05  22527285.185                        3941.604          28.729  
R10  21578670.797                       -3540.618          25.510  
R11  20358953.790                         614.528          33.537  
R12  22906078.652                        3901.337          29.825  
R20  19689871.885                       -1018.525          26.502  
R21  20741217.654                        2856.686          34.920  
> 2020  4 16 15 52 57.9995030  0 16
G05  24565609.782                       -2757.313          29.647  
G16  21119983.839                        1712.616          32.952  
G18  20507037.174                        -798.732          38.754  
G20  22549696.770                        3476.588          36.628  
G21  20823857.843                        -233.829          33.693  
G26  20755679.642                        -575.123          30.322  
G27  23285594.918                        3528.919          36.861  
G29  22755845.156                       -2674.164          25.558  
R03  23652962.695                       -2634.740          18.316  
R04  21685979.409                         656.074          30.781  
R05  22526648.426                        3941.846          29.759  
R10  21579399.293                       -3542.057          26.088  
R11  20358894.730                         615.751          33.149  
R12  22905422.706                        3901.130          29.872  
R20  19690143.497                       -1018.594          25.442  
R21  20740776.359                        2856.394          34.958  
> 2020  4 16 15 52 58.9995032  0 16
G05  24566195.577                       -2757.938          30.157  
G16  21119691.842                        1711.709          32.253  
G18  20507224.844                        -799.286          38.450  
G20  22549071.702                        3476.909          36.256  
G21  20823940.586                        -231.360          33.121  
G26  20755831.637                        -575.955          29.465  
G27  23284968.951                        3529.025          36.747  
G29  22756404.569                       -2673.995          22.676  
R03  23653502.321                       -2635.525          19.172  
R04  21685906.559                         654.328          32.143  
R05  22525967.297                        3941.591          27.033  
R10  21580118.495                       -3543.644          24.621  
R11  20358852.460                         614.970          33.364  
R12  22904741.577                        3900.212          29.910  
R20  19690381.233                       -1019.328          25.956  
R21  20740284.400                        2856.838          34.610  
> 2020  4 16 15 52 59.9995034  0 16
G05  24566789.166                       -2758.418          29.503  
G16  21119435.819                        1710.561          31.816  
G18  20507462.879                        -800.702          38.087  
G20  22548501.197                        3478.014          36.592  
G21  20824045.213                        -229.022          33.017  
G26  20755993.225                        -577.611          29.525  
G27  23284375.063                        3528.428          36.851  
G29  22756978.971                       -2673.821          22.133  
R03  23654069.229                       -2635.885          16.061  
R04  21685851.997                         654.014          31.909  
R05  22525250.494                        3941.215          26.184  
R10  21580814.313                       -3546.573          23.627  
R11  20358801.795                         612.734          33.985  
R12  22904094.026                        3898.816          30.018  
R20  19690631.559                       -1020.095          25.017  
R21  20739827.216                        2855.094          34.488  
> 2020  4 16 15 53  0.9995036  0 16
G05  24567375.860                       -2759.655          28.599  
G16  21119162.108                        1710.212          31.731  
G18  20507651.448                        -801.874          38.145  
G20  22547874.032                        3478.019          36.175  
G21  20824139.348                        -231.026          33.149  
G26  20756177.297                        -578.561          28.516  
G27  23283742.800                        3529.035          37.509  
G29  22757532.988                       -2672.504          23.027  
R03  23654630.440                       -2636.562          12.840  
R04  21685782.145                         651.589          32.023  
R05  22524582.856                        3941.382          27.607  
R10  21581508.932                       -3547.160          23.746  
R11  20358718.452                         609.520          32.540  
R12  22903402.404                        3897.955          30.696  
R20  19690893.278                       -1019.007          26.156  
R21  20739347.249                        2854.557          34.460  
> 2020  4 16 15 53  1.9995038  0 15
G05  24567938.570                       -2760.085          27.293  
G16  21118893.794                        1709.772          32.250  
G18  20507866.400                        -802.248          37.833  
G20  22547265.153                        3477.037          36.182  
G21  20824248.173                        -233.496          32.451  
G26  20756332.590                        -580.105          27.329  
G27  23283133.322                        3528.400          37.715  
G29  22758097.497                       -2672.848          23.903  
R04  21685747.070                         651.201          32.742  
R05  22523920.614                        3941.346          27.680  
R10  21582238.927                       -3546.859          22.902  
R11  20358652.798                         608.060          30.824  
R12  22902761.748                        3897.369          31.092  
R20  19691159.194                       -1019.360          26.096  
R21  20738845.996                        2854.441          34.656  
> 2020  4 16 15 53  2.9995039  0 16
G05  24568484.192                       -2759.524          28.071  
G16  21118599.698                        1709.470          32.804  
G18  20508048.074                        -801.675          37.748  
G20  22546628.994                        3477.241          36.456  
G21  20824315.027                        -233.288          32.112  
G26  20756463.899                        -581.193          27.577  
G27  23282492.966                        3528.804          37.505  
G29  22758625.431                       -2673.304          24.663  
R03  23655696.802                       -2637.927          16.651  
R04  21685629.851                         650.265          33.103  
R05  22523200.813                        3940.752          27.433  
R10  21582964.425                       -3545.717          24.166  
R11  20358562.560                         608.726          31.767  
R12  22902057.236                        3897.035          31.084  
R20  19691369.049                       -1019.376          25.881  
R21  20738354.636                        2852.919          34.462  
> 2020  4 16 15 53  3.9995041  0 15
G05  24569093.071                       -2760.123          29.406  
G16  21118337.979                        1709.072          32.940  
G18  20508263.025                        -802.782          37.568  
G20  22546045.597                        3476.896          36.863  
G21  20824427.149                        -233.644          32.522  
G26  20756623.389                        -581.566          26.666  
G27  23281885.886                        3528.919          37.893  
G29  22759201.633                       -2675.081          23.838  
R04  21685564.796                         650.568          33.335  
R05  22522523.581                        3940.355          27.471  
R10  21583728.596                       -3544.430          24.896  
R11  20358498.705                         606.960          31.440  
R12  22901353.023                        3896.774          30.965  
R20  19691614.579                       -1019.452          25.293  
R21  20737888.459                        2853.871          34.180  
> 2020  4 16 15 53  4.9995043  0 15
G05  24569685.161                       -2760.543          28.954  
G16  21118074.461                        1708.569          32.780  
G18  20508463.886                        -803.076          37.178  
G20  22545440.916                        3476.938          36.103  
G21  20824523.682                        -234.308          32.490  
G26  20756773.884                        -581.882          26.482  
G27  23281272.810                        3527.684          37.635  
G29  22759771.838                       -2676.006          24.098  
R04  21685494.345                         650.084          32.515  
R05  22521845.751                        3939.859          27.598  
R10  21584455.293                       -3543.883          24.953  
R11  20358468.426                         605.714          30.750  
R12  22900697.977                        3896.034          31.214  
R20  19691862.207                       -1020.690          25.654  
R21  20737397.099                        2854.179          33.784  
> 2020  4 16 15 53  5.9995045  0 16
G05  24570266.159                       -2761.078          29.784  
G16  21117816.940                        1707.718          32.394  
G18  20508688.131                        -804.313          36.993  
G20  22544858.719                        3476.105          36.696  
G21  20824649.895                        -234.198          32.457  
G26  20756958.257                        -582.010          27.331  
G27  23280686.116                        3527.391          38.554  
G29  22760352.836                       -2676.519          24.812  
R03  23657356.153                       -2640.085          13.578  
R04  21685471.560                         649.952          34.143  
R05  22521151.431                        3939.150          28.332  
R10  21585184.088                       -3544.511          24.262  
R11  20358417.161                         605.236          31.266  
R12  22900007.255                        3895.938          30.152  
R20  19692097.844                       -1022.551          25.472  
R21  20736924.626                        2853.970          33.710  
> 2020  4 16 15 53  6.9995047  0 16
G05  24570843.559                       -2761.295          30.068  
G16  21117531.537                        1707.564          31.835  
G18  20508891.390                        -805.082          37.068  
G20  22544228.256                        3477.066          36.323  
G21  20824734.436                        -233.771          32.850  
G26  20757136.633                        -582.541          27.153  
G27  23280055.653                        3526.986          38.412  
G29  22760915.546                       -2676.459          22.325  
R03  23657982.420                       -2639.195          22.412  
R04  21685394.814                         647.976          34.424  
R05  22520483.194                        3939.405          27.955  
R10  21585889.799                       -3543.692          25.035  
R11  20358363.498                         605.032          31.453  
R12  22899308.439                        3895.937          30.058  
R20  19692358.064                       -1023.550          25.090  
R21  20736465.344                        2855.183          34.115  
> 2020  4 16 15 53  7.9995049  0 16
G05  24571428.454                       -2762.003          30.464  
G16  21117268.619                        1706.855          31.302  
G18  20509119.232                        -805.027          37.502  
G20  22543636.165                        3476.235          36.172  
G21  20824833.368                        -235.657          32.350  
G26  20757303.918                        -581.442          27.345  
G27  23279456.668                        3526.530          38.578  
G29  22761474.059                       -2675.625          24.329  
R03  23658564.916                       -2638.192          20.129  
R04  21685334.255                         647.736          34.365  
R05  22519814.057                        3939.232          27.623  
R10  21586615.897                       -3545.309          25.575  
R11  20358327.823                         604.941          32.017  
R12  22898648.296                        3895.208          29.779  
R20  19692619.183                       -1022.979          24.592  
R21  20735991.072                        2854.308          33.824  
> 2020  4 16 15 53  8.9995051  0 16
G05  24572013.949                       -2762.141          30.037  
G16  21117012.297                        1706.646          31.819  
G18  20509335.682                        -805.328          37.850  
G20  22543045.275                        3475.580          36.117  
G21  20824943.092                        -236.925          32.580  
G26  20757487.091                        -580.934          27.426  
G27  23278846.890                        3527.078          38.749  
G29  22762022.680                       -2675.518          23.785  
R03  23659125.228                       -2641.477          21.741  
R04  21685311.171                         645.922          35.039  
R05  22519157.811                        3937.769          28.715  
R10  21587378.269                       -3546.376          25.763  
R11  20358289.449                         603.943          32.531  
R12  22898004.042                        3894.623          30.364  
R20  19692861.716                       -1023.046          23.533  
R21  20735537.786                        2854.205          33.570  
> 2020  4 16 15 53  9.9995053  0 16
G05  24572597.345                       -2761.772          29.400  
G16  21116737.986                        1705.813          31.615  
G18  20509549.434                        -806.607          37.811  
G20  22542442.692                        3474.273          36.686  
G21  20825058.512                        -237.422          32.334  
G26  20757657.673                        -580.958          26.803  
G27  23278226.019                        3528.400          38.206  
G29  22762583.291                       -2674.632          25.164  
R03  23659659.159                       -2642.368          21.867  
R04  21685259.008                         645.290          35.916  
R05  22518493.172                        3937.636          28.074  
R10  21588114.559                       -3548.668          25.687  
R11  20358220.497                         602.965          33.627  
R12  22897353.192                        3893.789          30.920  
R20  19693127.631                       -1023.689          24.240  
R21  20735049.124                        2852.267          33.772  
> 2020  4 16 15 53 10.9995055  0 16
G05  24573182.240                       -2761.910          28.868  
G16  21116489.159                        1704.898          31.920  
G18  20509774.579                        -806.387          38.240  
G20  22541853.000                        3473.981          36.981  
G21  20825159.842                        -235.119          32.355  
G26  20757824.357                        -581.811          26.912  
G27  23277634.829                        3528.797          38.817  
G29  22763156.195                       -2674.897          23.435  
R03  23660175.102                       -2643.414          23.018  
R04  21685166.372                         645.053          35.887  
R05  22517793.456                        3936.875          27.380  
R10  21588808.879                       -3549.667          25.211  
R11  20358167.134                         601.023          34.231  
R12  22896661.871                        3893.336          31.066  
R20  19693373.161                       -1024.564          24.978  
R21  20734569.456                        2851.517          32.921  
> 2020  4 16 15 53 11.9995057  0 16
G05  24573759.940                       -2762.230          29.203  
G16  21116228.040                        1704.351          31.420  
G18  20509968.244                        -806.439          37.888  
G20  22541238.425                        3473.486          36.104  
G21  20825268.367                        -233.933          33.195  
G26  20758007.231                        -583.150          26.455  
G27  23277005.864                        3528.316          38.663  
G29  22763740.191                       -2675.693          23.575  
R03  23660695.242                       -2645.994          20.942  
R04  21685132.795                         643.623          36.577  
R05  22517133.013                        3936.773          27.266  
R10  21589544.270                       -3548.371          25.739  
R11  20358121.566                         600.652          35.174  
R12  22896032.906                        3893.023          30.839  
R20  19693631.583                       -1024.266          24.249  
R21  20734115.570                        2852.426          33.454  
> 2020  4 16 15 53 12.9995059  0 16
G05  24574332.244                       -2762.773          29.230  
G16  21115952.830                        1703.421          31.329  
G18  20510178.699                        -805.983          38.349  
G20  22540637.341                        3474.002          36.732  
G21  20825360.703                        -234.711          33.283  
G26  20758171.817                        -584.199          26.642  
G27  23276387.093                        3528.356          38.195  
G29  22764321.188                       -2675.970          22.078  
R03  23661269.644                       -2647.135          23.072  
R04  21685066.241                         641.711          36.351  
R05  22516473.770                        3936.967          28.915  
R10  21590251.180                       -3548.266          26.035  
R11  20358082.293                         599.963          35.857  
R12  22895335.889                        3892.009          31.095  
R20  19693863.622                       -1024.327          23.957  
R21  20733622.112                        2852.222          33.434  
> 2020  4 16 15 53 13.9995061  0 16
G05  24574921.636                       -2763.396          28.827  
G16  21115694.709                        1702.600          31.600  
G18  20510394.250                        -806.950          38.337  
G20  22540027.264                        3474.728          36.529  
G21  20825479.121                        -235.913          33.718  
G26  20758332.805                        -584.993          27.074  
G27  23275786.608                        3527.803          38.528  
G29  22764877.903                       -2676.181          21.176  
R03  23661826.658                       -2646.924          21.987  
R04  21684983.498                         640.659          35.990  
R05  22515771.056                        3936.501          29.336  
R10  21590954.793                       -3548.061          26.080  
R11  20358031.928                         598.724          36.216  
R12  22894686.838                        3891.284          31.920  
R20  19694113.049                       -1025.974          23.236  
R21  20733153.836                        2849.983          33.534  
> 2020  4 16 15 53 14.9995063  0 16
G05  24575512.527                       -2763.531          29.340  
G16  21115431.491                        1702.305          31.525  
G18  20510604.404                        -807.655          37.928  
G20  22539427.379                        3474.222          36.094  
G21  20825584.948                        -237.520          34.177  
G26  20758494.094                        -585.274          26.387  
G27  23275169.036                        3526.965          38.453  
G29  22765435.517                       -2675.025          20.219  
R03  23662368.383                       -2646.551          22.694  
R04  21684912.447                         639.877          35.958  
R05  22515072.540                        3935.618          28.294  
R10  21591693.781                       -3548.490          25.844  
R11  20357971.669                         598.458          36.487  
R12  22894021.898                        3891.251          32.270  
R20  19694365.474                       -1025.880          23.360  
R21  20732678.066                        2848.163          33.443  
> 2020  4 16 15 53 15.9995065  0 16
G05  24576101.319                       -2763.757          29.137  
G16  21115176.068                        1701.903          31.906  
G18  20510833.745                        -808.837          38.291  
G20  22538837.088                        3473.897          35.952  
G21  20825686.877                        -238.871          33.717  
G26  20758658.979                        -585.410          26.459  
G27  23274563.755                        3525.116          38.448  
G29  22766006.022                       -2675.677          20.778  
R03  23662936.790                       -2645.053          26.030  
R04  21684894.460                         640.732          35.204  
R05  22514414.195                        3934.650          28.408  
R10  21592436.667                       -3549.429          25.843  
R11  20357930.598                         597.381          36.837  
R12  22893366.252                        3891.731          32.722  
R20  19694609.206                       -1025.467          24.064  
R21  20732203.494                        2847.950          33.895  
> 2020  4 16 15 53 16.9995067  0 16
G05  24576701.204                       -2764.129          29.487  
G16  21114900.559                        1701.971          31.051  
G18  20511046.598                        -809.331          38.637  
G20  22538242.000                        3472.717          35.947  
G21  20825806.794                        -238.262          33.915  
G26  20758834.658                        -586.089          25.854  
G27  23273959.673                        3524.053          38.543  
G29  22766575.927                       -2675.796          18.216  
R03  23663498.001                       -2644.570          24.213  
R04  21684802.424                         639.609          35.519  
R05  22513750.755                        3933.600          26.968  
R10  21593159.467                       -3550.455          25.547  
R11  20357877.235                         597.554          36.643  
R12  22892693.518                        3891.235          33.263  
R20  19694868.226                       -1028.972          23.944  
R21  20731732.220                        2849.600          33.297  
> 2020  4 16 15 53 17.9995069  0 16
G05  24577292.994                       -2763.405          29.919  
G16  21114646.634                        1701.699          31.346  
G18  20511270.543                        -808.846          38.862  
G20  22537640.916                        3470.717          36.145  
G21  20825913.220                        -238.268          33.786  
G26  20758999.544                        -587.995          25.701  
G27  23273338.503                        3524.337          38.243  
G29  22767175.213                       -2677.374          19.630  
R03  23664074.802                       -2645.156          22.897  
R04  21684739.767                         639.056          36.067  
R05  22513061.232                        3934.265          28.158  
R10  21593874.772                       -3551.862          24.892  
R11  20357813.379                         596.372          37.080  
R12  22892026.780                        3890.334          32.852  
R20  19695114.956                       -1029.594          22.479  
R21  20731258.548                        2849.505          33.814  
> 2020  4 16 15 53 18.9995071  0 16
G05  24577867.097                       -2763.110          29.598  
G16  21114370.825                        1701.673          31.293  
G18  20511469.905                        -808.998          38.896  
G20  22537030.838                        3470.562          36.026  
G21  20826004.957                        -239.995          34.331  
G26  20759174.023                        -589.034          26.024  
G27  23272720.031                        3525.916          38.141  
G29  22767765.804                       -2679.811          19.442  
R03  23664604.235                       -2646.690          20.580  
R04  21684697.796                         638.157          36.267  
R05  22512382.802                        3933.502          25.807  
R10  21594592.775                       -3552.728          24.901  
R11  20357773.207                         594.561          36.715  
R12  22891360.341                        3889.724          32.622  
R20  19695374.276                       -1030.570          21.892  
R21  20730787.275                        2848.533          34.347  
> 2020  4 16 15 53 19.9995073  0 16
G05  24578446.895                       -2763.388          29.345  
G16  21114107.607                        1701.073          31.219  
G18  20511692.051                        -808.356          39.232  
G20  22536427.056                        3471.729          35.987  
