     3.03           OBSERVATION DATA    M: Mixed            RINEX VERSION / TYPE
Geo++ RINEX Logger  Geo++               20210416 110810 UTC PGM / RUN BY / DATE
************************************************************COMMENT
This file was generated by the Geo++ RINEX Logger App       COMMENT
for Android devices (Version 2.1.6). If you encounter       COMMENT
any issues, please send an email to android@geopp.de        COMMENT
Filtering Mode: BEST                                        COMMENT
************************************************************COMMENT
Geo++                                                       MARKER NAME
GEODETIC                                                    MARKER TYPE
Geo++               Geo++                                   OBSERVER / AGENCY
unknown             HUAWEI              VKY-L29             REC # / TYPE / VERS
unknown             VKY-L29                                 ANT # / TYPE
  3543984.0575  1342696.9332  5112904.3626                  APPROX POSITION XYZ
        0.0000        0.0000        0.0000                  ANTENNA: DELTA H/E/N
G    8 C1C L1C D1C S1C C5Q L5Q D5Q S5Q                      SYS / # / OBS TYPES
R    4 C1C L1C D1C S1C                                      SYS / # / OBS TYPES
E   12 C1B L1B D1B S1B C1C L1C D1C S1C C5Q L5Q D5Q S5Q      SYS / # / OBS TYPES
C    4 C2I L2I D2I S2I                                      SYS / # / OBS TYPES
J    8 C1C L1C D1C S1C C5Q L5Q D5Q S5Q                      SYS / # / OBS TYPES
  2021     4    16    11     8   28.8830000     GPS         TIME OF FIRST OBS
 24 R01  1 R02 -4 R03  5 R04  6 R05  1 R06 -4 R07  5 R08  6 GLONASS SLOT / FRQ #
    R09 -2 R10 -5 R11  0 R12 -1 R13 -2 R14 -7 R15  0 R16 -1 GLONASS SLOT / FRQ #
    R17  4 R18 -3 R19  3 R20  2 R21  4 R22 -3 R23  3 R24  2 GLONASS SLOT / FRQ #
G L1C                                                       SYS / PHASE SHIFT
G L5Q -0.25000                                              SYS / PHASE SHIFT
R L1C                                                       SYS / PHASE SHIFT
E L1B                                                       SYS / PHASE SHIFT
E L1C +0.50000                                              SYS / PHASE SHIFT
E L5Q -0.25000                                              SYS / PHASE SHIFT
C L2I                                                       SYS / PHASE SHIFT
J L1C                                                       SYS / PHASE SHIFT
J L5Q -0.25000                                              SYS / PHASE SHIFT
 C1C    0.000 C1P    0.000 C2C    0.000 C2P    0.000        GLONASS COD/PHS/BIS
                                                            END OF HEADER
> 2021  4 16 11  8 28.8830000  2  0
> 2021  4 16 11  8 28.8830000  0  0
> 2021  4 16 11  8 29.8830000  0  0
> 2021  4 16 11  8 30.8830000  0  0
> 2021  4 16 11  8 31.8830000  0  0
> 2021  4 16 11  8 32.8830000  0  0
> 2021  4 16 11  8 33.8830000  0  0
> 2021  4 16 11  8 34.8830000  0  0
> 2021  4 16 11  8 35.8830000  0  0
> 2021  4 16 11  8 36.8830000  0  0
> 2021  4 16 11  8 37.8830000  0  0
> 2021  4 16 11  8 38.8830000  0  5
G029874400252.404  1523300254756.3871        388.235          44.113  
G069875154344.057  1523304217535.3231      -1482.400          39.868  
G129872762745.826                       -1309.344          33.847  
G259872411428.338  1523289803415.9451       1345.731          39.867  
G329875662655.960                       -1796.760          25.248  
> 2021  4 16 11  8 39.8830000  0  5
G029874400181.053  1523300254368.284         387.555          43.890  
G069875154630.958  1523304219017.935       -1483.180          39.069  
G129872762989.857                       -1310.371          34.767  
G259872411176.212  1523289802070.423        1345.271          40.899  
G329875663001.321                       -1797.219          24.892  
> 2021  4 16 11  8 40.8830000  0  5
G029874400110.602  1523300253981.621         386.053          43.800  
G069875154910.365  1523304220501.980       -1484.524          39.204  
G129872763241.083                       -1311.619          35.265  
G259872410915.393  1523289800726.180        1343.897          40.996  
G329875663322.399                       -1798.410          24.397  
> 2021  4 16 11  8 41.8830000  0  5
G029874400033.555  1523300253595.686         385.803          43.771  
G069875155191.870  1523304221986.799       -1484.944          39.076  
G129872763484.814  1523291653534.9191      -1311.726          35.066  
G259872410661.169  1523289799382.589        1343.485          40.962  
G329875663674.655                       -1799.231          25.226  
> 2021  4 16 11  8 42.8830000  0  5
G029874399960.706  1523300253210.852         384.080          43.973  
G069875155477.272  1523304223472.660       -1486.653          38.835  
G129872763736.040  1523291654847.694       -1313.744          34.898  
G259872410404.846  1523289798039.927        1341.906          40.795  
G329875664019.116                       -1800.817          25.369  
> 2021  4 16 11  8 43.8830000  0  5
G029874399888.755  1523300252827.429         382.411          44.118  
G069875155758.178  1523304224959.952       -1488.323          39.148  
G129872763991.164  1523291656161.671       -1314.659          33.893  
G259872410149.723  1523289796698.532        1340.551          41.147  
G329875664365.976                       -1801.908          25.483  
> 2021  4 16 11  8 44.8830000  0  5
G029874399817.705  1523300252446.245         380.489          44.214  
G069875156045.079  1523304226449.473       -1490.169          39.491  
G129872764234.895  1523291657477.685       -1316.618          34.446  
G259872409892.501  1523289795359.255        1338.672          41.243  
G329875664718.832                       -1804.157          25.825  
> 2021  4 16 11  8 45.8830000  0  5
G029874399741.557  1523300252066.204         379.978          44.205  
G069875156327.484  1523304227940.140       -1490.712          38.051  
G129872764492.717  1523291658794.692       -1316.952          35.103  
G259872409636.179  1523289794020.970        1338.317          40.765  
G329875665065.991  1523306901335.0431      -1804.328          26.224  
> 2021  4 16 11  8 46.8830000  0  5
G029874399671.706  1523300251686.482         379.476          44.117  
G069875156608.989  1523304229431.110       -1491.118          37.818  
G129872764738.546  1523291660111.828       -1317.244          34.753  
G259872409381.355  1523289792682.883        1338.036          40.708  
G329875665385.870  1523306903139.479       -1804.502          25.802  
> 2021  4 16 11  8 47.8830000  0  5
G029874399600.355  1523300251307.442         378.268          44.221  
G069875156891.993  1523304230922.774       -1492.409          38.016  
G129872764998.466  1523291661429.494       -1318.544          34.871  
G259872409125.932  1523289791345.360        1336.781          40.694  
G329875665728.833  1523306904944.509       -1805.763          26.021  
> 2021  4 16 11  8 48.8830000  0  5
G029874399526.007  1523300250930.596         375.027          44.267  
G069875157177.096  1523304232416.591       -1495.556          38.383  
G129872765246.095  1523291662749.063       -1320.870          34.179  
G259872408878.004  1523289790009.865        1333.696          40.813  
G329875666061.902  1523306906751.502       -1808.646          26.614  
> 2021  4 16 11  8 49.8830000  0  5
G029874399454.956  1523300250557.432         371.459          44.075  
G069875157461.299  1523304233914.137       -1499.144          38.884  
G129872765490.726  1523291664072.215       -1324.378          34.655  
G259872408620.482  1523289788677.917        1330.357          40.856  
G329875666418.955  1523306908562.090       -1811.786          26.975  
