     3.03           OBSERVATION DATA    M: Mixed            RINEX VERSION / TYPE
Geo++ RINEX Logger  Geo++               20200416 161244 UTC PGM / RUN BY / DATE
************************************************************COMMENT
This file was generated by the Geo++ RINEX Logger App       COMMENT
for Android devices (Version 2.1.6). If you encounter       COMMENT
any issues, please send an email to android@geopp.de        COMMENT
Filtering Mode: BEST                                        COMMENT
************************************************************COMMENT
Geo++                                                       MARKER NAME
GEODETIC                                                    MARKER TYPE
Geo++               Geo++                                   OBSERVER / AGENCY
unknown             HUAWEI              VKY-L29             REC # / TYPE / VERS
unknown             VKY-L29                                 ANT # / TYPE
  3544114.1218  1342713.0207  5113034.3336                  APPROX POSITION XYZ
        0.0000        0.0000        0.0000                  ANTENNA: DELTA H/E/N
G    8 C1C L1C D1C S1C C5Q L5Q D5Q S5Q                      SYS / # / OBS TYPES
R    4 C1C L1C D1C S1C                                      SYS / # / OBS TYPES
E   12 C1B L1B D1B S1B C1C L1C D1C S1C C5Q L5Q D5Q S5Q      SYS / # / OBS TYPES
C    4 C2I L2I D2I S2I                                      SYS / # / OBS TYPES
J    8 C1C L1C D1C S1C C5Q L5Q D5Q S5Q                      SYS / # / OBS TYPES
  2020     4    16    16    13    2.0003450     GPS         TIME OF FIRST OBS
 24 R01  1 R02 -4 R03  5 R04  6 R05  1 R06 -4 R07  5 R08  6 GLONASS SLOT / FRQ #
    R09 -2 R10 -5 R11  0 R12 -1 R13 -2 R14 -7 R15  0 R16 -1 GLONASS SLOT / FRQ #
    R17  4 R18 -3 R19  3 R20  2 R21  4 R22 -3 R23  3 R24  2 GLONASS SLOT / FRQ #
G L1C                                                       SYS / PHASE SHIFT
G L5Q -0.25000                                              SYS / PHASE SHIFT
R L1C                                                       SYS / PHASE SHIFT
E L1B                                                       SYS / PHASE SHIFT
E L1C +0.50000                                              SYS / PHASE SHIFT
E L5Q -0.25000                                              SYS / PHASE SHIFT
C L2I                                                       SYS / PHASE SHIFT
J L1C                                                       SYS / PHASE SHIFT
J L5Q -0.25000                                              SYS / PHASE SHIFT
 C1C    0.000 C1P    0.000 C2C    0.000 C2P    0.000        GLONASS COD/PHS/BIS
                                                            END OF HEADER
> 2020  4 16 16 13  2.0003450  2  0
> 2020  4 16 16 13  2.0003450  0 18
G10  24417473.335                        4089.527          26.282  
G13  25136394.536                        2391.534          24.885  
G15  24698014.620                        2868.628          30.241  
G16  20885029.295   109751568.8761        994.554          37.776  
G18  20830254.515   109463726.1051      -1344.160          33.992  
G20  21872771.695                        3072.406          32.066  
G21  21003653.573   110374944.3801       -664.012          34.617  
G26  21043532.566   110584509.5481      -1261.543          34.665  
G27  22573373.179                        3345.534          35.054  
G29  23466924.686                       -2865.321          29.461  
R03  24390889.838                       -3213.140          22.532  
R04  21733690.179   116382923.8711       -402.796          37.533  
R05  21778174.883   116416824.9791       3338.804          34.230  
R10  22504621.475                       -3942.907          27.330  
R11  20418203.872   109108690.3481       -458.757          37.501  
R12  22171664.476   118437051.2011       3256.624          33.604  
R20  20052030.768                       -1510.984          22.320  
R21  20222072.451   108212394.0771       2426.836          35.090  
> 2020  4 16 16 13  3.0003452  0 18
G10  24416764.626                        4088.542          25.363  
G13  25136009.902                        2395.820          28.704  
G15  24697523.860                        2868.226          32.346  
G16  20884906.980   109750891.287         992.354          35.071  
G18  20830571.695   109465386.097       -1346.232          37.540  
G20  21872241.662                        3070.637          35.430  
G21  21003827.753   110375924.559        -666.130          34.333  
G26  21043831.758   110586087.391       -1263.557          36.085  
G27  22572799.676                        3340.147          32.106  
G29  23467529.667                       -2864.601          30.139  
R03  24391526.298                       -3213.179          17.924  
R04  21733816.392   116383648.732        -405.956          38.063  
R05  21777606.477   116413808.264        3335.491          34.936  
R10  22505417.724                       -3941.777          27.200  
R11  20418340.277   109109469.956        -459.719          33.175  
R12  22171093.072                        3252.334          33.129  
R20  20052338.655                       -1510.489          25.290  
R21  20221674.026   108210289.043        2426.878          33.671  
> 2020  4 16 16 13  4.0003454  0 17
G10  24416016.044                        4088.680          25.945  
G13  25135626.468                        2395.581          26.474  
G15  24697042.393                        2868.157          31.123  
G16  20884778.968   109750216.404         988.660          33.125  
G18  20830890.974   109467047.542       -1346.134          35.837  
G20  21871716.726                        3069.076          32.962  
G21  21004019.920   110376905.955        -665.548          33.853  
G26  21044132.450   110587667.103       -1265.758          38.700  
G27  22572224.374                        3337.367          31.545  
G29  23468151.737                       -2863.649          26.744  
R04  21733952.798   116384375.862        -406.028          38.643  
R05  21777049.462                        3334.263          31.632  
R10  22506179.196                       -3944.992          29.608  
R11  20418497.968                        -465.682          33.260  
R12  22170554.944                        3247.771          30.923  
R20  20052708.299                       -1511.062          24.971  
R21  20221279.500   108208186.811        2422.763          33.037  
> 2020  4 16 16 13  5.0003457  0 17
G10  24415337.314                        4086.167          28.263  
G13  25135257.423                        2392.254          24.723  
G15  24696592.105                        2869.754          29.047  
G16  20884674.940   109749702.057         985.696          36.469  
G18  20831232.438   109468867.253       -1347.330          35.898  
G20  21871231.062                        3067.690          34.631  
G21  21004234.271   110378046.410        -668.523          33.543  
G26  21044467.918   110589407.554       -1269.086          36.104  
G27  22571679.951                        3336.773          29.811  
G29  23468752.521                       -2865.017          26.649  
R04  21734130.275   116385263.956        -406.587          34.636  
R05  21776513.134                        3335.362          32.455  
R10  22507017.116                       -3947.618          28.627  
R11  20418664.952                        -467.642          34.885  
R12  22170029.408                        3247.197          37.497  
R20  20053055.758                       -1512.435          25.397  
R21  20220903.860   108206248.000        2418.902          32.078  
> 2020  4 16 16 13  6.0003459  0 17
G10  24414614.214                        4085.709          28.108  
G13  25134865.295                        2391.900          22.547  
G15  24696134.322                        2867.184          26.531  
G16  20884545.430   109749032.296         983.852          35.126  
G18  20831547.520   109470530.436       -1349.406          36.933  
G20  21870701.628                        3067.038          35.535  
G21  21004422.541   110379030.253        -670.469          32.460  
G26  21044762.014   110590992.297       -1270.576          37.153  
G27  22571101.951                        3333.566          28.717  
G29  23469377.288                       -2865.438          30.496  
R04  21734267.879   116385992.895        -409.915          33.342  
R05  21775953.121                        3333.929          36.176  
R10  22507792.380                       -3948.526          26.637  
R11  20418827.740                        -470.155          34.047  
R12  22169491.281                        3244.245          40.009  
R20  20053449.985                       -1510.173          22.922  
R21  20220505.435   108204150.723        2416.638          31.477  
> 2020  4 16 16 13  7.0003461  0 17
G10  24413909.102                        4084.475          34.582  
G13  25134486.357                        2392.641          20.833  
G15  24695602.190                        2867.346          24.373  
G16  20884415.920   109748364.440         982.648          33.679  
G18  20831865.600   109472195.595       -1350.704          31.800  
G20  21870185.386                        3065.161          32.457  
G21  21004624.001   110380015.987        -671.192          34.216  
G26  21045060.308   110592578.883       -1272.403          34.480  
G27  22570522.153                        3332.361          32.741  
G29  23469984.068                       -2866.652          29.386  
R04  21734374.006   116386724.029        -410.762          32.762  
R05  21775398.206                        3332.174          35.823  
R10  22508615.310                       -3950.075          29.256  
R11  20418964.445                        -471.602          32.686  
R12  22168944.759                        3243.546          40.741  
R20  20053771.363                       -1517.909          23.690  
R21  20220131.894   108202054.845        2416.260          31.176  
> 2020  4 16 16 13  8.0003463  0 17
G10  24413189.301                        4084.143          37.634  
G13  25134070.545                        2387.805          22.561  
G15  24695132.416                        2866.028          30.499  
G16  20884298.401   109747697.420         981.506          35.951  
G18  20832186.377   109473861.423       -1351.490          32.660  
G20  21869655.652                        3064.170          32.502  
G21  21004806.575   110381002.328        -671.815          34.106  
G26  21045367.895   110594166.424       -1273.076          34.999  
G27  22569960.941                        3333.229          31.892  
G29  23470596.244                       -2866.945          26.817  
R04  21734525.101   116387456.509        -412.244          33.425  
R05  21774833.397                        3331.115          35.494  
R10  22509451.731   120072512.3701      -3950.904          27.625  
R11  20419138.325                        -472.645          31.912  
R12  22168390.443                        3242.633          41.567  
R20  20054124.818                       -1519.821          22.776  
R21  20219738.266   108199959.637        2415.572          31.729  
> 2020  4 16 16 13  9.0003466  0 17
G10  24412488.386   128288602.5041       4083.451          35.967  
G13  25133671.221                        2390.749          20.270  
G15  24694663.840                        2865.290          32.530  
G16  20884199.470   109747188.972         980.547          35.616  
G18  20832533.237   109475685.749       -1351.980          33.375  
G20  21869162.494   114923236.5561       3063.882          31.888  
G21  21005017.629   110382146.976        -672.291          34.099  
G26  21045702.463   110595912.425       -1273.790          33.686  
G27  22569414.420                        3332.576          31.499  
G29  23471224.609                       -2867.642          27.671  
R04  21734716.069   116388350.743        -413.441          33.698  
R05  21774319.252   116396048.5501       3330.325          35.884  
R10  22510231.791   120076673.390       -3951.525          25.440  
R11  20419307.108   109114526.0921       -473.931          31.696  
R12  22167878.097   118416887.7741       3241.621          41.420  
R20  20054486.068                       -1515.621          23.494  
R21  20219380.314   108198025.814        2414.857          32.724  
> 2020  4 16 16 13 10.0003468  0 17
G10  24411772.182   128284834.186        4083.629          36.186  
G13  25133300.978                        2387.151          19.845  
G15  24694180.275                        2865.202          32.819  
G16  20884067.861   109746523.818         980.123          34.984  
G18  20832852.217   109477353.061       -1352.295          34.455  
G20  21868630.062   114920488.280        3063.582          32.263  
G21  21005190.609   110383134.540        -672.118          33.663  
G26  21046004.354   110597501.768       -1274.222          35.399  
G27  22568843.315   118600026.6311       3332.208          31.132  
G29  23471820.897   123345280.6701      -2867.982          26.699  
R04  21734843.781   116389085.594        -413.670          33.620  
R05  21773743.951   116393039.204        3330.154          35.239  
R10  22511033.136                       -3955.470          24.163  
R11  20419443.813   109115320.786        -474.843          30.468  
R12  22167328.578   118413966.945        3240.953          41.774  
R20  20054859.010                       -1515.528          23.154  
R21  20218978.892   108195932.037        2414.629          31.691  
> 2020  4 16 16 13 11.0003470  0 17
G10  24411053.279   128281064.837        4084.903          36.523  
G13  25132932.533                        2386.538          21.698  
G15  24693688.315                        2866.162          31.513  
G16  20883953.940   109745858.357         980.730          34.507  
G18  20833158.904   109479019.931       -1351.495          34.430  
G20  21868095.532   114917739.463        3064.151          31.667  
G21  21005384.275   110384121.726        -671.775          30.632  
G26  21046306.545   110599090.673       -1273.482          36.312  
G27  22568269.212   118597008.672        3333.572          31.304  
G29  23472440.268   123348462.705       -2866.755          25.456  
R04  21735003.270   116389820.306        -413.437          33.455  
R05  21773204.025   116390029.485        3330.354          33.766  
R10  22511855.767                       -3950.357          23.981  
R11  20419586.215   109116115.383        -474.261          29.400  
R12  22166775.461   118411045.581        3241.864          41.480  
R20  20055147.710                       -1516.706          22.299  
R21  20218584.665   108193837.658        2415.664          30.261  
> 2020  4 16 16 13 12.0003472  0 17
G10  24410342.472   128277294.856        4085.123          34.030  
G13  25132531.710                        2387.567          22.923  
G15  24693202.652   129763738.8591       2866.640          30.134  
G16  20883815.735   109745192.893         980.384          35.029  
G18  20833479.083   109480686.605       -1351.783          34.773  
G20  21867594.279   114914990.382        3064.337          34.945  
G21  21005564.750   110385108.467        -671.641          29.936  
G26  21046606.338   110600679.475       -1273.879          33.783  
G27  22567690.313   118593990.330        3333.614          34.097  
G29  23473051.545   123351644.194       -2866.569          28.278  
R04  21735135.479   116390555.205        -414.191          31.732  
R05  21772600.242   116387019.697        3330.453          33.485  
R10  22512677.797                       -3950.413          26.473  
R11  20419725.918   109116910.313        -475.178          31.431  
R12  22166233.136   118408124.105        3241.439          39.941  
R20  20055523.350                       -1515.138          22.426  
R21  20218210.824   108191743.080        2415.349          33.645  
> 2020  4 16 16 13 13.0003475  0 17
G10  24409659.245   128273682.120        4085.388          30.870  
G13  25132184.850                        2388.331          22.447  
G15  24692739.172   129761345.459        2866.146          28.771  
G16  20883721.600   109744685.276         979.925          35.295  
G18  20833825.343   109482510.882       -1351.842          33.984  
G20  21867105.018   114912398.838        3064.151          35.835  
G21  21005792.592   110386252.800        -671.462          30.630  
G26  21046939.707   110602425.966       -1273.788          31.441  
G27  22567153.685   118591129.367        3333.574          34.213  
G29  23473672.415   123354983.001       -2865.895          29.184  
R04  21735282.677   116391451.245        -414.430          29.458  
R05  21772083.101   116384170.434        3329.768          33.909  
R10  22513487.237                       -3950.708          25.380  
R11  20419899.798   109117865.846        -475.371          30.737  
R12  22165709.099   118405363.207        3241.166          39.262  
R20  20055875.306                       -1514.903          22.181  
R21  20217832.486   108189808.959        2415.204          34.172  
> 2020  4 16 16 13 14.0003477  0 18
G10  24408946.038   128269911.845        4084.611          31.045  
G13  25131761.544                        2389.311          22.775  
G15  24692254.408   129758794.676        2864.989          28.042  
G16  20883602.583   109744020.658         979.306          35.281  
G18  20834144.022   109484177.860       -1352.763          34.180  
G20  21866569.889   114909649.995        3062.616          33.803  
G21  21005982.361   110387239.660        -672.484          30.811  
G26  21047243.696   110604015.500       -1275.206          31.894  
G27  22566572.687   118588110.977        3333.032          33.633  
G29  23474276.796   123358164.358       -2866.852          28.522  
R03  24398934.769                       -3221.169          13.541  
R04  21735427.477   116392187.625        -416.611          28.758  
R05  21771520.990   116381161.304        3328.472          33.184  
R10  22514303.272                       -3953.600          24.425  
R11  20420064.683   109118662.062        -475.570          29.263  
R12  22165173.670   118402442.854        3240.420          40.285  
R20  20056250.347                       -1516.977          22.344  
R21  20217456.246   108187714.744        2414.638          33.800  
> 2020  4 16 16 13 15.0003479  0 17
G10  24408224.138   128266142.933        4083.709          35.979  
G13  25131373.912                        2385.582          24.379  
G15  24691769.344   129756245.659        2863.840          27.920  
G16  20883476.970   109743357.919         976.980          33.342  
G18  20834465.100   109485846.681       -1354.041          35.793  
G20  21866054.246   114906903.084        3060.812          32.010  
G21  21006168.532   110388228.478        -674.356          29.714  
G26  21047542.889   110605606.851       -1276.852          35.982  
G27  22566009.677   118585094.138        3330.718          31.674  
G29  23474879.679   123361347.121       -2867.109          27.442  
R04  21735560.285   116392926.036        -417.186          29.405  
R05  21770961.577   116378154.150        3328.443          32.590  
R10  22515110.913                       -3952.834          25.283  
R11  20420221.175   109119460.485        -479.102          29.267  
R12  22164627.148   118399524.301        3238.079          40.946  
R20  20056569.026                       -1517.684          23.779  
R21  20217067.715   108185622.092        2412.805          31.672  
> 2020  4 16 16 13 16.0003481  0 17
G10  24407509.133   128262375.448        4082.670          32.901  
G13  25130971.590                        2380.895          21.236  
G15  24691287.577                        2861.765          25.511  
G16  20883340.264                         978.916          32.653  
G18  20834793.073                       -1355.993          34.289  
G20  21865526.911                        3059.010          29.957  
G21  21006358.001                        -675.685          30.855  
G26  21047847.478   110607199.308       -1275.310          34.976  
G27  22565416.088                        3330.161          30.201  
G29  23475480.763                       -2871.101          27.158  
R04  21735685.898                        -419.190          29.287  
R05  21770377.881                        3322.200          31.780  
R10  22515884.078                       -3952.781          25.133  
R11  20420371.671                        -480.127          32.073  
R12  22164088.121   118396607.386        3235.971          36.357  
R20  20056890.104                       -1519.335          22.394  
R21  20216666.293                        2411.342          31.869  
> 2020  4 16 16 13 17.0003484  0 17
G10  24406828.604   128258764.328        4083.645          30.645  
G13  25130595.351                        2379.106          18.483  
G15  24690839.088                        2860.599          22.943  
G16  20883246.429                         975.981          32.964  
G18  20835130.339                       -1355.251          34.166  
G20  21865031.953                        3059.383          27.920  
G21  21006578.648                        -675.589          32.489  
G26  21048187.743   110608949.802       -1277.996          33.762  
G27  22564875.262                        3331.566          33.041  
G29  23476133.711                       -2867.985          26.391  
R04  21735850.184                        -417.921          32.607  
R05  21769840.653                        3324.434          34.144  
R10  22516708.207                       -3953.919          24.400  
R11  20420547.949                        -477.920          30.922  
R12  22163566.782   118393850.606        3236.306          32.032  
R20  20057295.124                       -1523.141          22.722  
R21  20216293.351                        2414.446          32.235  
> 2020  4 16 16 13 18.0003486  0 17
G10  24406103.106   128254996.077        4083.439          29.258  
G13  25130203.822                        2379.355          16.426  
G15  24690372.611                        2862.783          24.612  
G16  20883111.523                         975.365          35.216  
G18  20835436.428                       -1355.203          34.661  
G20  21864507.916                        3060.153          32.563  
G21  21006766.618                        -675.091          33.193  
G26  21048490.533   110610543.379       -1277.934          31.647  
G27  22564308.055                        3330.954          30.045  
G29  23476734.795                       -2869.148          24.864  
R04  21735975.797                        -418.531          30.660  
R05  21769293.532                        3325.282          34.609  
R10  22517519.446                       -3953.222          24.557  
R11  20420676.260                        -481.058          30.672  
R12  22163007.369   118390934.650        3236.157          29.370  
R20  20057611.105                       -1518.391          24.010  
R21  20215918.311                        2411.974          35.755  
> 2020  4 16 16 13 19.0003488  0 17
G10  24405379.407   128251227.249        4085.002          26.650  
G13  25129822.186                        2380.661          11.094  
G15  24689881.551                        2864.027          25.020  
G16  20882993.105                         976.477          32.824  
G18  20835759.604                       -1353.050          32.284  
G20  21864002.166                        3062.120          33.023  
G21  21006957.586                        -672.871          31.080  
G26  21048775.336                       -1279.405          27.072  
G27  22563725.258                        3331.929          30.629  
G29  23477358.363                       -2866.470          23.659  
R04  21736136.486                        -419.479          29.099  
R05  21768732.920                        3327.211          33.994  
R10  22518348.072                       -3956.070          22.811  
R11  20420847.741                        -481.566          30.007  
R12  22162480.634   118388018.518        3236.653          28.671  
R20  20058009.529                       -1513.999          22.762  
R21  20215504.897                        2412.843          32.780  
> 2020  4 16 16 13 20.0003490  0 17
G10  24404669.199   128247458.308        4084.172          33.714  
G13  25129433.955                        2381.967          20.730  
G15  24689411.476                        2862.842          31.601  
G16  20882872.288                         974.866          31.306  
G18  20836083.380                       -1355.634          35.581  
G20  21863475.731                        3060.450          30.592  
G21  21007145.256                        -674.993          33.931  
G26  21049086.521                       -1278.916          24.977  
G27  22563155.652                        3331.378          38.268  
G29  23477978.334                       -2868.040          24.414  
R04  21736280.386                        -421.779          32.143  
R05  21768162.115                        3324.708          33.761  
R10  22519109.845                       -3952.925          26.804  
R11  20420986.545                        -482.135          34.490  
R12  22161937.110   118385102.914        3235.465          37.415  
R20  20058291.034                       -1518.651          26.439  
R21  20215149.943                        2411.749          30.040  
> 2020  4 16 16 13 21.0003493  0 17
G10  24403975.479   128243846.789        4084.489          36.077  
G13  25129046.023                        2382.306          21.865  
G15  24688951.295                        2863.030          31.217  
G16  20882778.154   109739710.3531        974.280          31.607  
G18  20836431.439   109496185.3351      -1355.652          36.755  
G20  21862978.675                        3060.654          27.959  
G21  21007354.211   110394483.8451       -674.965          33.837  
G26  21049418.391                       -1280.292          22.967  
G27  22562611.829   118567312.8741       3331.521          38.961  
G29  23478626.485                       -2867.663          24.462  
R04  21736432.981                        -422.291          32.358  
R05  21767644.373   116360446.8101       3324.573          34.937  
R10  22519964.553                       -3953.044          28.144  
R11  20421174.215                        -482.967          34.167  
R12  22161412.473   118382347.763        3235.550          38.053  
R20  20058676.267                       -1519.021          27.040  
R21  20214778.500                        2411.985          29.717  
> 2020  4 16 16 13 22.0003495  0 17
G10  24403262.573   128240077.348        4084.380          36.441  
G13  25128659.891                        2385.527          22.599  
G15  24688462.633   129738726.7721       2862.503          31.587  
G16  20882645.645   109739051.167         973.813          31.753  
G18  20836748.919   109497856.158       -1356.033          37.235  
G20  21862453.139   114888001.9821       3059.995          27.856  
G21  21007549.076   110395473.992        -675.322          33.517  
G26  21049705.892                       -1278.071          21.774  
G27  22562037.726   118564296.446        3331.391          38.944  
G29  23479233.865                       -2869.669          25.127  
R04  21736583.776                        -423.033          33.335  
R05  21767070.870   116357443.014        3324.018          35.559  
R10  22520752.408                       -3953.064          29.943  
R11  20421319.015   109125393.9111       -483.718          34.227  
R12  22160860.855   118379432.701        3235.075          38.013  
R20  20059036.618                       -1519.024          27.543  
R21  20214386.372   108171305.4711       2411.372          29.380  
> 2020  4 16 16 13 23.0003497  0 18
G10  24402544.570   128236308.064        4084.420          36.299  
G13  25128274.358   132049948.1531       2382.703          23.442  
G15  24687991.659   129736179.474        2862.310          32.872  
G16  20882520.632   109738392.840         973.053          31.781  
G18  20837070.896   109499527.525       -1356.326          37.037  
G20  21861940.194   114885257.345        3059.549          27.591  
G21  21007731.650   110396464.603        -675.790          33.804  
G26  21050040.160                       -1275.569          22.616  
G27  22561459.427   118561280.362        3331.269          38.583  
G29  23479845.741                       -2868.184          24.444  
R03  24404910.232                       -3223.878          22.003  
R04  21736730.974   116399190.7931       -423.931          34.004  
R05  21766524.948   116354439.942        3323.476          35.780  
R10  22521551.055                       -3953.409          29.930  
R11  20421484.201   109126198.665        -484.630          34.516  
R12  22160329.023   118376518.476        3234.220          38.194  
R20  20059379.281                       -1519.234          27.418  
R21  20214014.329   108169215.297        2410.643          28.526  
> 2020  4 16 16 13 24.0003499  0 18
G10  24401824.169   128232538.989        4083.988          36.499  
G13  25127859.145                        2380.891          21.744  
G15  24687507.194   129733632.689        2861.661          33.975  
G16  20882398.316   109737735.193         972.505          32.252  
G18  20837382.380   109501199.449       -1357.001          36.952  
G20  21861406.563   114882513.247        3058.974          26.873  
G21  21007918.121   110397455.642        -676.240          33.697  
G26  21050333.957                       -1278.987          22.184  
G27  22560887.722   118558264.598        3330.756          38.245  
G29  23480439.030                       -2867.829          24.314  
R03  24405537.998                       -3226.282          22.594  
R04  21736871.277   116399936.451        -424.934          34.380  
R05  21765949.946   116351437.634        3322.341          35.838  
R10  22522343.706   120141235.8071      -3953.772          29.573  
R11  20421616.109   109127004.468        -485.744          34.235  
R12  22159771.409   118373605.004        3233.653          38.329  
R20  20059708.453   107268422.6371      -1520.093          27.592  
R21  20213597.917   108167125.456        2410.842          27.940  
> 2020  4 16 16 13 25.0003502  0 18
G10  24401139.742   128228927.554        4084.089          36.564  
G13  25127509.587                        2378.767          21.665  
G15  24687043.116   129731243.817        2861.393          34.467  
G16  20882309.578   109737235.819         971.777          32.788  
G18  20837728.641   109503029.406       -1357.563          36.758  
G20  21860904.711   114879927.175        3058.314          27.292  
G21  21008133.971   110398604.678        -676.571          33.549  
G26  21050685.614                       -1281.230          23.813  
G27  22560347.496   118555406.672        3330.495          38.242  
G29  23481095.276                       -2866.975          23.889  
R03  24406216.128                       -3225.080          23.240  
R04  21737043.358   116400843.655        -426.117          34.642  
R05  21765438.201   116348596.236        3321.841          35.666  
R10  22523176.529   120145669.614       -3954.036          29.712  
R11  20421811.574   109127971.403        -486.642          34.078  
R12  22159270.756   118370852.433        3232.856          38.608  
R20  20060134.158   107270423.795       -1520.603          28.183  
R21  20213261.850   108165196.646        2409.854          28.988  
> 2020  4 16 16 13 26.0003504  0 18
G10  24400416.043   128225158.571        4084.059          36.653  
G13  25127103.069                        2384.673          22.335  
G15  24686565.247   129728697.696        2861.252          34.462  
G16  20882184.564   109736579.492         971.479          32.538  
G18  20838045.221   109504702.158       -1357.640          36.520  
G20  21860383.072   114877183.841        3058.925          25.571  
G21  21008331.535   110399596.453        -676.866          34.090  
G26  21050977.312                       -1281.636          23.401  
G27  22559775.792   118552391.326        3330.513          38.472  
G29  23481735.033                       -2869.132          22.554  
R03  24406877.770                       -3229.119          19.939  
R04  21737170.470   116401591.166        -426.875          34.090  
R05  21764876.090   116345595.189        3321.466          35.342  
R10  22523974.577   120149943.707       -3954.327          29.562  
R11  20421962.669   109128778.899        -487.252          33.039  
R12  22158720.937   118367940.223        3232.519          38.244  
R20  20060454.636   107272264.917       -1520.155          28.546  
R21  20212854.432   108163107.702        2409.883          28.641  
> 2020  4 16 16 13 27.0003506  0 18
G10  24399700.739   128221389.452        4083.495          35.369  
G13  25126751.112                        2382.864          22.582  
G15  24686067.891   129726151.552        2861.694          33.994  
G16  20882066.746   109735923.478         971.159          32.268  
G18  20838359.704   109506375.058       -1358.037          36.797  
G20  21859874.024   114874440.644        3059.128          28.775  
G21  21008526.100   110400588.188        -676.541          34.295  
G26  21051300.188                       -1282.632          23.160  
G27  22559197.193   118549375.836        3330.734          38.837  
G29  23482353.205                       -2868.556          19.150  
R03  24407535.215                       -3229.432          19.897  
R04  21737322.465   116402339.181        -427.180          35.091  
R05  21764306.784   116342594.331        3321.859          33.259  
R10  22524788.513   120154217.744       -3954.528          29.247  
R11  20422108.069   109129587.026        -488.354          33.598  
R12  22158169.319   118365028.285        3232.224          37.553  
R20  20060793.402   107274106.228       -1520.838          28.828  
R21  20212462.903   108161018.876        2409.443          28.775  
> 2020  4 16 16 13 28.0003508  0 17
G10  24398985.434   128217619.899        4084.145          33.529  
G13  25126332.602                        2380.103          22.841  
G15  24685603.213   129723605.541        2860.451          33.561  
G16  20881930.340   109735267.919         970.313          32.842  
G18  20838676.285   109508048.110       -1358.332          36.662  
G20  21859343.691   114871698.137        3058.618          29.507  
G21  21008708.074   110401580.164        -677.139          34.819  
G26  21051575.098                       -1282.561          22.871  
G27  22558628.486   118546360.382        3330.287          39.385  
R03  24408191.161                       -3230.773          19.884  
R04  21737447.478   116403087.900        -428.280          34.978  
R05  21763725.187   116339593.912        3320.809          32.875  
R10  22525595.255   120158491.734       -3954.149          28.366  
R11  20422251.370   109130395.783        -489.171          33.353  
R12  22157618.600   118362116.826        3231.137          37.987  
R20  20061142.360   107275947.568       -1521.092          29.849  
R21  20212084.265   108158930.185        2408.901          29.443  
> 2020  4 16 16 13 29.0003511  0 17
G10  24398296.511   128214008.557        4083.481          34.530  
G13  25125977.348                        2380.667          23.858  
G15  24685140.033   129721217.857        2859.870          33.248  
G16  20881839.503   109734770.914         969.161          33.674  
G18  20839023.444   109509879.572       -1359.052          35.925  
G20  21858861.025   114869113.595        3056.518          29.302  
G21  21008926.323   110402730.325        -677.959          34.834  
G26  21051937.547                       -1282.408          22.347  
G27  22558080.766   118543503.077        3329.378          39.759  
R03  24408857.300                       -3231.259          17.168  
R04  21737618.660   116403998.377        -429.647          35.633  
R05  21763197.252   116336754.757        3319.227          32.761  
R10  22526405.294   120162926.340       -3954.677          28.386  
R11  20422455.228   109131365.978        -489.698          34.271  
R12  22157112.250   118359366.505        3230.244          38.481  
R20  20061510.505   107277950.019       -1521.774          29.790  
R21  20211743.401   108157002.599        2408.224          29.498  
> 2020  4 16 16 13 30.0003513  0 18
G10  24397575.810   128210239.854        4083.870          33.870  
G13  25125596.312                        2379.626          24.266  
G15  24684643.277   129718673.098        2859.928          33.036  
G16  20881711.492   109734117.266         968.092          33.396  
G18  20839345.421   109511554.155       -1359.768          35.875  
G20  21858339.387   114866372.099        3055.999          29.009  
G21  21009124.186   110403723.610        -678.561          35.608  
G26  21052242.736                       -1285.048          20.729  
G27  22557506.363   118540488.603        3329.448          39.453  
G29  23484172.046                       -2867.698          16.872  
R03  24409555.217                       -3231.587          18.108  
R04  21737757.763   116404749.471        -430.375          34.630  
R05  21762632.143   116333756.162        3319.177          32.002  
R10  22527206.040   120167201.565       -3955.459          28.782  
R11  20422595.831   109132177.269        -491.416          34.647  
R12  22156560.033   118356457.022        3229.435          38.339  
R20  20061842.076   107279792.891       -1522.746          28.912  
R21  20211347.675   108154915.401        2407.566          30.302  
> 2020  4 16 16 13 31.0003515  0 18
G10  24396855.708   128206471.295        4083.598          33.480  
G13  25125191.592                        2379.203          25.157  
G15  24684158.812   129716128.833        2858.831          32.311  
G16  20881582.881   109733464.184         967.995          34.087  
G18  20839664.700   109513229.185       -1360.257          36.312  
G20  21857824.343   114863630.949        3055.700          27.729  
G21  21009307.059   110404717.179        -678.697          35.796  
G26  21052521.543                       -1288.320          18.592  
G27  22556931.661   118537474.392        3329.361          39.582  
G29  23484775.228                       -2868.838          16.691  
R03  24410206.066                       -3231.666          21.096  
R04  21737904.062   116405501.477        -431.316          34.428  
R05  21762080.825   116330758.247        3317.842          30.578  
R10  22527986.400   120171477.015       -3955.667          28.301  
R11  20422762.216   109132989.350        -492.082          35.152  
R12  22156013.211   118353548.157        3228.793          38.076  
R20  20062173.346   107281636.038       -1522.667          28.654  
R21  20210958.844   108152828.475        2407.818          30.787  
> 2020  4 16 16 13 32.0003517  0 18
G10  24396133.508   128202702.904        4083.469          33.858  
G13  25124817.151   132031670.7491       2378.747          26.029  
G15  24683679.744   129713584.877        2859.180          31.611  
G16  20881461.165   109732811.893         967.209          33.763  
G18  20839986.977   109514904.698       -1360.428          36.847  
G20  21857305.402   114860890.310        3055.276          27.305  
G21  21009489.933   110405711.208        -678.852          35.654  
G26  21052791.356                       -1287.818          18.415  
G27  22556363.854   118534460.471        3329.102          39.741  
G29  23485392.201                       -2868.230          13.844  
R03  24410949.251                       -3231.982          21.147  
R04  21738039.568   116406254.430        -432.356          35.254  
R05  21761525.010   116327761.049        3317.323          30.374  
R10  22528815.925   120175752.798       -3955.662          28.610  
R11  20422903.418   109133802.450        -492.712          35.664  
R12  22155472.386   118350639.994        3228.131          37.823  
R20  20062544.789   107283479.729       -1523.037          28.765  
R21  20210556.823   108150742.091        2407.185          30.946  
> 2020  4 16 16 13 33.0003520  0 16
G10  24395450.881   128199092.121        4083.669          33.345  
G13  25124431.618   132029764.893        2378.129          27.400  
G15  24683197.978   129711199.105        2857.523          30.099  
G16  20881368.230   109732317.883         966.130          33.753  
G18  20840344.929   109516738.300       -1361.419          37.162  
G20  21856805.349   114858307.704        3054.858          28.421  
G21  21009718.375   110406863.257        -679.708          35.531  
G26  21053152.606                       -1286.941          20.811  
G27  22555816.133   118531604.413        3328.456          39.578  
R04  21738203.855   116407168.883        -433.510          34.188  
R05  21760956.903   116324924.842        3316.625          29.579  
R10  22529643.352   120180188.885       -3956.599          28.421  
R11  20423080.895   109134776.728        -494.221          35.752  
R12  22154958.242   118347892.718        3227.207          38.116  
R20  20062908.138   107285484.236       -1523.810          28.873  
R21  20210177.585   108148816.582        2406.599          29.799  
> 2020  4 16 16 13 34.0003522  0 16
G10  24394723.584   128195324.111        4083.273          32.958  
G13  25124046.684   132027702.099        2377.511          28.225  
G15  24682731.201   129708656.022        2857.784          29.665  
G16  20881259.405   109731667.123         965.527          33.646  
G18  20840656.414   109518414.907       -1361.574          37.054  
G20  21856304.995   114855568.106        3054.722          28.389  
G21  21009908.743   110407858.224        -679.975          35.825  
G26  21053460.193                       -1287.909          19.407  
G27  22555244.729   118528591.111        3328.449          39.243  
R04  21738349.554   116407923.794        -434.267          34.243  
R05  21760389.096   116321929.098        3316.224          27.234  
R10  22530442.000   120184465.361       -3956.468          28.592  
R11  20423246.980   109135591.812        -494.958          35.661  
R12  22154417.116   118344986.084        3226.603          38.607  
R20  20063244.505   107287328.921       -1524.003          28.556  
R21  20209774.664   108146731.238        2406.077          28.516  
> 2020  4 16 16 13 35.0003524  0 17
G10  24394007.080   128191556.243        4082.849          32.405  
G13  25123672.843   132025639.919        2376.716          27.775  
G15  24682251.533   129706113.410        2857.461          29.754  
G16  20881124.498   109731017.049         964.811          33.307  
G18  20840980.190   109520092.047       -1362.213          37.035  
G20  21855779.759   114852829.063        3053.839          28.304  
G21  21010097.312   110408853.601        -680.417          35.855  
G26  21053790.564                       -1288.159          18.190  
G27  22554672.425   118525578.144        3327.764          39.588  
R03  24412929.081                       -3233.338          22.989  
R04  21738483.561   116408679.751        -435.479          35.221  
R05  21759861.461   116318934.157        3314.805          27.786  
R10  22531232.552   120188742.265       -3957.569          29.157  
R11  20423386.983   109136407.913        -496.160          35.648  
R12  22153867.896   118342080.189        3225.835          38.062  
R20  20063600.059   107289174.159       -1524.993          28.823  
R21  20209375.041   108144646.349        2405.597          28.027  
> 2020  4 16 16 13 36.0003526  0 17
G10  24393292.075   128187788.447        4082.876          33.245  
G13  25123273.220   132023578.116        2376.813          28.420  
G15  24681772.764   129703571.239        2857.317          30.136  
G16  20880995.588   109730367.712         964.415          33.196  
G18  20841303.366   109521769.720       -1362.883          37.247  
G20  21855245.828   114850090.477        3053.347          28.168  
G21  21010294.276   110409849.463        -681.009          36.094  
G26  21054091.556                       -1289.036          17.989  
G27  22554100.121   118522565.449        3327.546          39.509  
R03  24413638.390                       -3230.778          20.429  
R04  21738621.765   116409436.613        -436.332          35.393  
R05  21759247.786   116315648.765        3314.293          26.947  
R10  22532069.273   120193019.394       -3957.524          28.956  
R11  20423547.073   109137225.035        -497.419          35.741  
R12  22153330.668   118339175.016        3224.982          38.026  
R20  20063932.529   107291019.801       -1525.229          28.609  
R21  20208973.019   108142562.014        2405.064          27.352  
> 2020  4 16 16 13 37.0003529  0 18
G10  24392608.249   128184178.450        4082.682          33.198  
G13  25122889.486   132021674.567        2375.864          28.825  
G15  24681311.983   129701187.186        2856.804          29.864  
G16  20880906.549   109729876.719         963.488          33.216  
G18  20841655.022   109523605.470       -1363.281          37.104  
G20  21854757.766   114847509.932        3052.769          28.562  
G21  21010507.428   110411003.302        -681.249          35.924  
G26  21054406.338                       -1290.249          19.445  
G27  22553552.700   118519710.641        3327.397          39.474  
G29  23488394.023                       -2869.229          14.551  
R03  24414323.116                       -3231.101          18.503  
R04  21738816.630   116410355.077        -437.019          36.007  
R05  21758743.236   116312815.425        3313.865          27.109  
R10  22532883.210   120197456.879       -3957.720          29.039  
R11  20423731.145   109138203.364        -498.282          34.928  
R12  22152816.824   118336430.796        3224.260          37.927  
R20  20064330.953   107293026.328       -1525.827          28.689  
R21  20208619.564   108140638.507        2404.555          28.196  
> 2020  4 16 16 13 38.0003531  0 18
G10  24391908.233   128180410.911        4082.286          33.825  
G13  25122502.453   132019613.736        2375.650          29.114  
G15  24680831.716   129698645.789        2856.021          28.969  
G16  20880783.634   109729228.705         962.820          32.794  
G18  20841978.499   109525284.019       -1363.859          37.307  
G20  21854226.534   114844772.133        3052.888          27.788  
G21  21010701.094   110411999.891        -681.813          35.849  
G26  21054731.313                       -1291.102          20.328  
G27  22552984.893   118516698.408        3327.079          39.616  
G29  23488994.807                       -2869.389          14.285  
R03  24414996.749                       -3230.322          19.150  
R04  21738959.032   116411113.797        -438.373          36.505  
R05  21758208.706   116310094.396        3313.303          25.562  
R10  22533684.855   120201734.672       -3958.312          29.063  
R11  20423876.544   109139022.271        -499.272          34.230  
R12  22152270.302   118333526.937        3223.827          37.694  
R20  20064666.720   107294872.771       -1526.253          29.295  
R21  20208251.119   108138554.975        2403.986          29.056  
> 2020  4 16 16 13 39.0003533  0 17
G10  24391183.635   128176643.563        4082.247          33.577  
G13  25122111.224   132017553.550        2374.975          28.849  
G15  24680352.048   129696104.902        2855.467          28.562  
G16  20880661.919   109728581.539         962.091          33.345  
G18  20842290.882   109526963.164       -1364.239          37.292  
G20  21853729.478   114842035.073        3051.845          28.106  
G21  21010892.362   110412996.967        -682.155          36.197  
G26  21055051.791                       -1288.992          22.615  
G27  22552406.294   118513686.573        3326.739          39.690  
R03  24415631.110                       -3231.172          19.727  
R04  21739090.641   116411873.490        -439.010          36.004  
R05  21757635.502   116307102.030        3312.663          26.605  
R10  22534492.795   120206012.749       -3958.107          28.226  
R11  20424017.447   109139842.243        -499.737          32.660  
R12  22151729.777   118330623.952        3223.014          38.116  
R20  20065030.369   107296719.859       -1526.997          29.191  
R21  20207870.982   108136471.996        2403.640          28.727  
> 2020  4 16 16 13 40.0003535  0 17
G10  24390458.737   128172876.285        4082.068          33.519  
G13  25121728.389   132015493.805        2374.336          28.860  
G15  24679874.179   129693564.371        2855.368          28.246  
G16  20880534.807   109727935.000         961.311          34.113  
G18  20842608.962   109528642.793       -1364.857          36.677  
G20  21853183.856   114839298.367        3051.600          27.002  
G21  21011081.231   110413994.438        -682.457          36.103  
G26  21055323.103                       -1286.581          20.771  
G27  22551836.389   118510674.953        3326.607          39.748  
R03  24416262.773                       -3232.032          20.878  
R04  21739239.937   116412634.186        -440.250          35.743  
R05  21757071.293                        3313.108          24.742  
R10  22535308.830   120210291.254       -3959.365          28.335  
R11  20424155.951   109140663.217        -501.026          31.693  
R12  22151183.555   118327721.598        3222.580          38.224  
R20  20065374.230   107298567.275       -1527.145          29.755  
R21  20207480.952   108134389.475        2403.114          29.009  
> 2020  4 16 16 13 41.0003538  0 17
G10  24389775.510   128169266.732        4082.381          33.360  
G13  25121352.749   132013592.161        2374.165          28.582  
G15  24679416.695   129691181.828        2854.786          29.557  
G16  20880448.766   109727446.789         960.688          34.396  
G18  20842954.323   109530480.480       -1365.315          36.515  
G20  21852701.190   114836719.720        3051.034          26.060  
G21  21011295.283   110415149.919        -683.025          35.991  
G26  21055651.975                       -1289.306          19.849  
G27  22551296.762   118507821.184        3326.336          39.978  
R03  24416979.577                       -3238.623          20.808  
R04  21739386.236   116413556.393        -441.094          34.880  
R05  21756553.851                        3312.169          24.219  
R10  22536133.859   120214730.000       -3959.403          29.049  
R11  20424357.112   109141645.346        -502.129          32.336  
R12  22150674.207   118324980.158        3221.574          37.908  
R20  20065741.176   107300575.518       -1527.258          29.953  
R21  20207127.197   108132467.830        2402.699          29.543  
> 2020  4 16 16 13 42.0003540  0 17
G10  24389055.108   128165499.572        4082.399          33.111  
G13  25120951.627   132011533.304        2373.781          27.808  
G15  24678922.338   129688641.906        2854.913          29.610  
G16  20880326.451   109726801.553         960.145          33.806  
G18  20843274.501   109532160.915       -1365.529          36.976  
G20  21852182.849                        3051.845          24.464  
G21  21011479.955   110416148.048        -682.955          35.487  
G26  21055947.871                       -1290.199          20.498  
G27  22550722.060   118504809.992        3326.266          40.113  
R03  24417696.980                       -3236.822          20.712  
R04  21739541.229   116414318.826        -441.832          34.754  
R05  21756034.311                        3310.361          24.985  
R10  22536952.293   120219008.973       -3959.488          29.459  
R11  20424499.513   109142468.077        -502.799          31.005  
R12  22150136.080   118322079.080        3221.039          37.983  
R20  20066081.441   107302423.761       -1527.742          30.206  
R21  20206729.372   108130386.005        2402.541          30.178  
> 2020  4 16 16 13 43.0003542  0 17
G10  24388351.196   128161732.573        4082.003          33.544  
G13  25120567.893   132009474.861        2373.225          27.186  
G15  24678434.275   129686102.449        2854.352          29.331  
G16  20880193.943   109726157.000         959.300          33.103  
G18  20843591.382   109533841.848       -1365.959          36.671  
G20  21851677.698                        3050.072          25.539  
G21  21011672.122   110417146.656        -683.898          35.425  
G26  21056271.347                       -1293.318          21.671  
G27  22550143.760   118501799.027        3325.932          39.938  
R03  24418316.951                       -3233.297          21.563  
R04  21739680.632   116415082.279        -443.006          34.311  
R05  21755447.917                        3310.041          25.607  
R10  22537741.346   120223288.183       -3959.727          29.702  
R11  20424660.502   109143291.714        -503.576          30.470  
R12  22149584.762   118319178.702        3220.338          38.480  
R20  20066423.504   107304272.472       -1528.467          30.353  
R21  20206342.040   108128304.681        2401.961          30.582  
> 2020  4 16 16 13 44.0003544  0 17
G10  24387627.497   128157965.676        4081.974          33.418  
G13  25120183.859   132007417.093        2372.651          28.477  
G15  24677954.907   129683563.393        2854.224          29.494  
G16  20880078.223   109725513.220         958.689          33.738  
G18  20843916.057   109535523.338       -1366.478          36.384  
G20  21851131.476                        3049.846          23.748  
G21  21011868.786   110418145.668        -684.139          35.579  
G26  21056579.833                       -1295.369          21.812  
G27  22549574.754   118498788.411        3325.605          40.099  
R03  24418982.490                       -3238.576          18.782  
R04  21739817.937   116415846.586        -443.699          34.711  
R05  21754901.995                        3309.237          26.503  
R10  22538549.287   120227567.786       -3959.864          29.414  
R11  20424801.104   109144116.422        -505.062          29.823  
R12  22149049.332   118316279.111        3219.634          38.575  
R20  20066792.249   107306121.659       -1528.889          30.341  
R21  20205967.000   108126223.928        2401.138          30.229  
> 2020  4 16 16 13 45.0003547  0 17
G10  24386951.465   128154356.365        4081.955          34.328  
G13  25119826.806   132005517.121        2372.220          28.931  
G15  24677497.724   129681182.239        2853.580          28.078  
G16  20879988.884   109725027.516         957.897          33.135  
G18  20844262.617   109537362.701       -1367.066          37.129  
G20  21850626.926                        3049.506          23.228  
G21  21012093.330   110419302.476        -684.569          35.732  
G26  21056917.699                       -1293.311          23.608  
G27  22549027.333   118495935.429        3325.405          39.428  
R03  24419691.799                       -3238.704          13.961  
R04  21739992.416   116416772.262        -444.578          35.250  
R05  21754391.448                        3310.205          23.883  
R10  22539375.515   120232007.482       -3960.250          29.682  
R11  20424985.777   109145102.048        -505.677          29.825  
R12  22148541.184   118313540.203        3218.975          38.276  
R20  20067153.799   107308131.451       -1529.125          30.838  
R21  20205621.339   108124303.802        2401.185          31.019  
> 2020  4 16 16 13 46.0003549  0 17
G10  24386233.162   128150589.709        4081.780          34.525  
G13  25119433.778   132003460.195        2371.640          28.172  
G15  24677025.251   129678643.961        2853.056          28.554  
G16  20879862.972   109724385.103         957.212          33.410  
G18  20844583.095   109539045.085       -1367.419          36.595  
G20  21850141.262                        3049.130          25.413  
G21  21012274.705   110420302.250        -684.816          35.473  
G26  21057208.198                       -1293.889          23.493  
G27  22548450.832   118492925.250        3325.419          39.790  
R03  24420312.969                       -3238.483          19.972  
R04  21740151.306   116417538.457        -445.617          35.109  
R05  21753801.157                        3305.374          24.210  
R10  22540165.768   120236287.617       -3959.989          28.916  
R11  20425154.860   109145928.574        -506.376          29.791  
R12  22147991.065   118310641.935        3218.323          38.468  
R20  20067497.660   107309981.448       -1529.369          30.873  
R21  20205197.133   108122223.847        2400.837          31.407  
> 2020  4 16 16 13 47.0003551  0 16
G10  24385513.960   128146823.170        4081.335          33.983  
G13  25119044.947   132001403.782        2371.372          28.292  
G15  24676544.983   129676106.084        2852.571          27.991  
G16  20879743.654   109723743.350         956.275          33.212  
G18  20844905.972   109540727.948       -1368.042          36.917  
G20  21849599.537                        3048.696          24.178  
G21  21012465.373   110421302.431        -685.406          34.832  
G27  22547879.428   118489915.369        3324.787          39.825  
R03  24420974.911                       -3235.670          21.693  
R04  21740302.102   116418305.541        -446.543          36.082  
R05  21753217.461                        3306.508          24.133  
R10  22540991.696   120240568.158       -3961.191          28.766  
R11  20425291.865   109146756.022        -507.262          28.589  
R12  22147464.629   118307744.357        3217.477          38.961  
R20  20067842.122   107311831.890       -1530.044          30.649  
R21  20204832.286   108120144.303        2400.186          31.676  
> 2020  4 16 16 13 48.0003553  0 18
G10  24384804.951   128143056.809        4081.277          34.197  
G13  25118651.020   131999347.967        2370.745          27.537  
G15  24676066.515   129673568.619        2852.452          27.943  
G16  20879616.242   109723102.390         955.400          33.502  
G18  20845231.846   109542411.344       -1368.487          37.386  
G20  21849101.282                        3047.399          25.743  
G21  21012656.341   110422303.052        -685.830          35.625  
G26  21057814.978                       -1289.975          20.057  
G27  22547304.726   118486905.799        3324.462          39.155  
G29  23495185.821                       -2874.085          22.838  
R03  24421662.935                       -3237.319          20.577  
R04  21740443.004   116419073.640        -447.402          36.532  
R05  21752652.652                        3306.274          25.539  
R10  22541778.951   120244848.943       -3960.781          29.749  
R11  20425464.845   109147584.491        -508.645          29.178  
R12  22146909.114   118304847.549        3216.637          38.453  
R20  20068210.867   107313682.809       -1530.600          31.096  
R21  20204449.151   108118065.243        2399.606          31.637  
> 2020  4 16 16 13 49.0003556  0 18
G10  24384115.128   128139448.077        4081.484          34.203  
G13  25118293.667   131997450.107        2370.170          28.030  
G15  24675605.434   129671189.204        2851.936          28.522  
G16  20879526.904   109722619.618         954.967          33.032  
G18  20845570.612   109544252.804       -1369.068          37.245  
G20  21848598.830                        3046.650          24.288  
